,zpid,price,bedrooms,squarefeetarea,latitude,street_address,zipcode,link,longitude,full_bathroom,half_bathroom,quarter_bathroom,three_quarter_bathroom,year_built,lot_area,stories,home_type,full_address
0,22114515,246000,4,1532,36.155727,2637 E 4th St,74104,https://www.zillow.com/homedetails/2637-E-4th-St-Tulsa-OK-74104/22114515_zpid/,-95.95213,3.0,0.0,0.0,0.0,1948.0,7492.32,1.0,Duplex,"2637 E 4th St,Tulsa,OK"
1,22120268,10000,2,924,36.164566,519 N Hudson Ave,74115,https://www.zillow.com/homedetails/519-N-Hudson-Ave-Tulsa-OK-74115/22120268_zpid/,-95.91316,0.0,0.0,0.0,0.0,1935.0,12545.28,1.0,Duplex,"519 N Hudson Ave,Tulsa,OK"
2,22144917,255000,2,2185,36.127705,2420 S 83rd East Ave,74129,https://www.zillow.com/homedetails/2420-S-83rd-East-Ave-Tulsa-OK-74129/22144917_zpid/,-95.88521,1.0,0.0,0.0,0.0,1969.0,10585.08,1.0,Duplex,"2420 S 83rd East Ave,Tulsa,OK"
3,22144918,255000,4,2185,36.12746,2426 S 83rd East Ave,74129,https://www.zillow.com/homedetails/2426-S-83rd-East-Ave-Tulsa-OK-74129/22144918_zpid/,-95.885216,1.0,0.0,0.0,0.0,1969.0,12545.28,1.0,Duplex,"2426 S 83rd East Ave,Tulsa,OK"
4,401750019,270000,2,2296,36.05864,7219 S 66th East Ave #7219/7221,74133,https://www.zillow.com/homedetails/7219-S-66th-East-Ave-7219-7221-Tulsa-OK-74133/401750019_zpid/,-95.90331,4.0,0.0,0.0,0.0,1970.0,9191.16,1.0,Duplex,"7219 S 66th East Ave #7219/7221,Tulsa,OK"
5,22108907,60000,4,968,36.139286,11006 E 16th St,74128,https://www.zillow.com/homedetails/11006-E-16th-St-Tulsa-OK-74128/22108907_zpid/,-95.85328,1.0,0.0,0.0,0.0,1977.0,10454.4,1.0,Duplex,"11006 E 16th St,Tulsa,OK"
6,22101277,325000,6,2298,36.174152,1324 N Denver Ave,74106,https://www.zillow.com/homedetails/1324-N-Denver-Ave-Tulsa-OK-74106/22101277_zpid/,-95.999725,4.0,0.0,0.0,0.0,1939.0,20168.28,1.0,Duplex,"1324 N Denver Ave,Tulsa,OK"
7,401749865,370000,2,3120,36.062332,6918 S 78th East Ave #6918/6920,74133,https://www.zillow.com/homedetails/6918-S-78th-East-Ave-6918-6920-Tulsa-OK-74133/401749865_zpid/,-95.890625,4.0,2.0,0.0,0.0,1983.0,34543.08,2.0,Duplex,"6918 S 78th East Ave #6918/6920,Tulsa,OK"
8,22150195,365000,6,1944,36.11457,1345 E 34th St,74105,https://www.zillow.com/homedetails/1345-E-34th-St-Tulsa-OK-74105/22150195_zpid/,-95.97377,1.0,0.0,0.0,0.0,1925.0,6185.52,1.0,Duplex,"1345 E 34th St,Tulsa,OK"
9,2078731212,299900,8,2910,36.06779,1903 E 66th Pl,74136,https://www.zillow.com/homedetails/1903-E-66th-Pl-Tulsa-OK-74136/2078731212_zpid/,-95.96399,4.0,0.0,0.0,0.0,1980.0,17511.12,1.0,Duplex,"1903 E 66th Pl,Tulsa,OK"
10,22164293,513500,3,4334,36.063366,6829 S 78th East Ave,74133,https://www.zillow.com/homedetails/6829-S-78th-East-Ave-Tulsa-OK-74133/22164293_zpid/,-95.890015,4.0,2.0,0.0,0.0,1982.0,27007.2,2.0,Duplex,"6829 S 78th East Ave,Tulsa,OK"
11,22135096,104000,5,1221,36.17583,1420 N Boston Ave,74106,https://www.zillow.com/homedetails/1420-N-Boston-Ave-Tulsa-OK-74106/22135096_zpid/,-95.99607,0.0,0.0,0.0,0.0,1940.0,8842.68,1.0,Duplex,"1420 N Boston Ave,Tulsa,OK"
12,22112038,235000,3,2578,36.068344,1906 E 66th St S,74136,https://www.zillow.com/homedetails/1906-E-66th-St-S-Tulsa-OK-74136/22112038_zpid/,-95.963715,4.0,0.0,0.0,0.0,1980.0,7753.68,1.0,Duplex,"1906 E 66th St S,Tulsa,OK"
14,22174478,275000,2,1720,36.137108,3615 E 17th St,74112,https://www.zillow.com/homedetails/3615-E-17th-St-Tulsa-OK-74112/22174478_zpid/,-95.93618,2.0,0.0,0.0,0.0,1950.0,58413.96,1.0,Duplex,"3615 E 17th St,Tulsa,OK"
15,22109002,89000,5,959,36.140835,11052 E 14th Ct S,74128,https://www.zillow.com/homedetails/11052-E-14th-Ct-S-Tulsa-OK-74128/22109002_zpid/,-95.85216,1.0,0.0,0.0,0.0,1982.0,9016.92,1.0,Duplex,"11052 E 14th Ct S,Tulsa,OK"
16,22112058,267500,5,2578,36.0689,1809 E 66th St S,74136,https://www.zillow.com/homedetails/1809-E-66th-St-S-Tulsa-OK-74136/22112058_zpid/,-95.96466,4.0,0.0,0.0,0.0,1980.0,3789.72,1.0,Duplex,"1809 E 66th St S,Tulsa,OK"
17,22112060,267500,2,2578,36.068844,1729 E 66th St S,74136,https://www.zillow.com/homedetails/1729-E-66th-St-S-Tulsa-OK-74136/22112060_zpid/,-95.96521,4.0,0.0,0.0,0.0,1980.0,10497.96,1.0,Duplex,"1729 E 66th St S,Tulsa,OK"
18,22144922,250000,6,2185,36.127506,2425 S 83rd East Ave,74129,https://www.zillow.com/homedetails/2425-S-83rd-East-Ave-Tulsa-OK-74129/22144922_zpid/,-95.88462,1.0,0.0,0.0,0.0,1969.0,10280.16,1.0,Duplex,"2425 S 83rd East Ave,Tulsa,OK"
19,22131416,345000,3,2784,36.059444,6601 E 72nd Pl S,74133,https://www.zillow.com/homedetails/6601-E-72nd-Pl-S-Tulsa-OK-74133/22131416_zpid/,-95.90365,2.0,2.0,0.0,0.0,1970.0,18687.24,2.0,Duplex,"6601 E 72nd Pl S,Tulsa,OK"
20,22131419,310000,2,2730,36.05876,7214 S 66th East Ave,74133,https://www.zillow.com/homedetails/7214-S-66th-East-Ave-Tulsa-OK-74133/22131419_zpid/,-95.90386,2.0,0.0,0.0,0.0,1970.0,7013.16,1.0,Duplex,"7214 S 66th East Ave,Tulsa,OK"
21,22110752,225000,2,1679,36.114304,5807 E 35th St,74135,https://www.zillow.com/homedetails/5807-E-35th-St-Tulsa-OK-74135/22110752_zpid/,-95.912476,1.0,0.0,0.0,0.0,1965.0,8276.4,1.0,Duplex,"5807 E 35th St,Tulsa,OK"
22,347530874,255000,4,2072,36.148758,1005 S Quincy Ave,74120,https://www.zillow.com/homedetails/1005-S-Quincy-Ave-Tulsa-OK-74120/347530874_zpid/,-95.97317,2.0,0.0,0.0,0.0,1936.0,18077.4,1.0,Duplex,"1005 S Quincy Ave,Tulsa,OK"
23,22177948,381000,3,3008,36.142643,1325 S Elwood Ave,74119,https://www.zillow.com/homedetails/1325-S-Elwood-Ave-Tulsa-OK-74119/22177948_zpid/,-95.99323,2.0,0.0,0.0,0.0,1938.0,8581.32,2.0,Duplex,"1325 S Elwood Ave,Tulsa,OK"
24,22133712,180000,3,1846,36.146297,1148 S 73rd East Ave,74112,https://www.zillow.com/homedetails/1148-S-73rd-East-Ave-Tulsa-OK-74112/22133712_zpid/,-95.896,1.0,0.0,0.0,0.0,1968.0,6664.68,1.0,Duplex,"1148 S 73rd East Ave,Tulsa,OK"
25,22173333,172500,3,1330,36.14222,1402 S Jamestown Ave,74112,https://www.zillow.com/homedetails/1402-S-Jamestown-Ave-Tulsa-OK-74112/22173333_zpid/,-95.93847,0.0,0.0,0.0,0.0,1935.0,17772.48,1.0,Duplex,"1402 S Jamestown Ave,Tulsa,OK"
26,22146226,186000,3,1545,36.168373,917 N Winston Ave,74115,https://www.zillow.com/homedetails/917-N-Winston-Ave-Tulsa-OK-74115/22146226_zpid/,-95.92287,2.0,0.0,0.0,0.0,1942.0,13939.2,1.0,Duplex,"917 N Winston Ave,Tulsa,OK"
27,22175810,335000,5,1708,36.145863,1204 S Zunis Ave,74104,https://www.zillow.com/homedetails/1204-S-Zunis-Ave-Tulsa-OK-74104/22175810_zpid/,-95.96115,2.0,0.0,0.0,0.0,1950.0,96964.56,1.0,Duplex,"1204 S Zunis Ave,Tulsa,OK"
28,344772550,335000,6,1708,36.145863,1204 S Zunis Ave E,74104,https://www.zillow.com/homedetails/1204-S-Zunis-Ave-E-Tulsa-OK-74104/344772550_zpid/,-95.96115,2.0,0.0,0.0,0.0,1950.0,15115.32,2.0,Duplex,"1204 S Zunis Ave E,Tulsa,OK"
29,22164290,337000,2,3136,36.062893,6901 S 78th East Ave,74133,https://www.zillow.com/homedetails/6901-S-78th-East-Ave-Tulsa-OK-74133/22164290_zpid/,-95.89001,3.0,0.0,0.0,0.0,1983.0,8581.32,2.0,Duplex,"6901 S 78th East Ave,Tulsa,OK"
30,22164291,347000,1,3329,36.06314,6835 S 78th East Ave,74133,https://www.zillow.com/homedetails/6835-S-78th-East-Ave-Tulsa-OK-74133/22164291_zpid/,-95.89001,4.0,0.0,0.0,0.0,1983.0,7013.16,2.0,Duplex,"6835 S 78th East Ave,Tulsa,OK"
31,22108783,128000,5,982,36.140625,11027 E 15th St,74128,https://www.zillow.com/homedetails/11027-E-15th-St-Tulsa-OK-74128/22108783_zpid/,-95.852684,1.0,0.0,0.0,0.0,1975.0,8537.76,1.0,Duplex,"11027 E 15th St,Tulsa,OK"
32,22276869,60500,5,2235,36.115253,3237 S Hudson Ave,74135,https://www.zillow.com/homedetails/3237-S-Hudson-Ave-Tulsa-OK-74135/22276869_zpid/,-95.9133,0.0,0.0,0.0,0.0,1969.0,13982.76,1.0,Duplex,"3237 S Hudson Ave,Tulsa,OK"
33,22115699,25000,3,1092,36.172016,1241 N 76th Ave E,74115,https://www.zillow.com/homedetails/1241-N-76th-Ave-E-Tulsa-OK-74115/22115699_zpid/,-95.89126,0.0,0.0,0.0,0.0,1954.0,7492.32,1.0,Duplex,"1241 N 76th Ave E,Tulsa,OK"
34,22164251,377000,4,1899,36.064926,6748 S 78th East Ave,74133,https://www.zillow.com/homedetails/6748-S-78th-East-Ave-Tulsa-OK-74133/22164251_zpid/,-95.890594,2.0,1.0,0.0,0.0,1983.0,12545.28,2.0,Duplex,"6748 S 78th East Ave,Tulsa,OK"
35,349763933,34000,2,912,36.09956,4337 S 30th West Ave,74107,https://www.zillow.com/homedetails/4337-S-30th-West-Ave-Tulsa-OK-74107/349763933_zpid/,-96.02529,1.0,0.0,0.0,0.0,1983.0,10585.08,1.0,Duplex,"4337 S 30th West Ave,Tulsa,OK"
36,22164285,435000,6,4254,36.061447,7013 S 78th East Ave,74133,https://www.zillow.com/homedetails/7013-S-78th-East-Ave-Tulsa-OK-74133/22164285_zpid/,-95.89004,4.0,0.0,0.0,0.0,1982.0,12545.28,2.0,Duplex,"7013 S 78th East Ave,Tulsa,OK"
37,22116558,260000,2,1008,36.148796,1001 S Quincy Ave,74120,https://www.zillow.com/homedetails/1001-S-Quincy-Ave-Tulsa-OK-74120/22116558_zpid/,-95.97305,0.0,0.0,0.0,0.0,1936.0,9191.16,1.0,Duplex,"1001 S Quincy Ave,Tulsa,OK"
38,22114555,205000,3,1590,36.15695,2743 E 3rd St,74104,https://www.zillow.com/homedetails/2743-E-3rd-St-Tulsa-OK-74104/22114555_zpid/,-95.94954,1.0,0.0,0.0,0.0,1950.0,10454.4,1.0,Duplex,"2743 E 3rd St,Tulsa,OK"
39,22147503,235000,3,3136,36.11639,3227 S Allegheny Ave,74135,https://www.zillow.com/homedetails/3227-S-Allegheny-Ave-Tulsa-OK-74135/22147503_zpid/,-95.9212,2.0,1.0,0.0,0.0,1979.0,20168.28,2.0,Duplex,"3227 S Allegheny Ave,Tulsa,OK"
41,343046954,260000,2,2072,36.148884,1001 S Quincy Ave E,74120,https://www.zillow.com/homedetails/1001-S-Quincy-Ave-E-Tulsa-OK-74120/343046954_zpid/,-95.97317,2.0,0.0,0.0,0.0,1936.0,6185.52,1.0,Duplex,"1001 S Quincy Ave E,Tulsa,OK"
42,350262091,125000,2,982,36.14044,1502 S 108th East Pl,74128,https://www.zillow.com/homedetails/1502-S-108th-East-Pl-Tulsa-OK-74128/350262091_zpid/,-95.85547,1.0,0.0,0.0,0.0,1977.0,17511.12,1.0,Duplex,"1502 S 108th East Pl,Tulsa,OK"
43,22102125,275000,2,1348,36.142036,1410 S Quincy Ave,74120,https://www.zillow.com/homedetails/1410-S-Quincy-Ave-Tulsa-OK-74120/22102125_zpid/,-95.97363,2.0,0.0,0.0,0.0,1930.0,27007.2,1.0,Duplex,"1410 S Quincy Ave,Tulsa,OK"
44,340023520,80000,3,982,36.140053,10833 E 15th Pl S,74128,https://www.zillow.com/homedetails/10833-E-15th-Pl-S-Tulsa-OK-74128/340023520_zpid/,-95.85422,1.0,0.0,0.0,0.0,1975.0,8842.68,1.0,Duplex,"10833 E 15th Pl S,Tulsa,OK"
45,22123562,529000,4,3762,36.077354,3422 E 59th St S,74135,https://www.zillow.com/homedetails/3422-E-59th-St-S-Tulsa-OK-74135/22123562_zpid/,-95.93766,3.0,1.0,0.0,0.0,1982.0,7753.68,1.0,Duplex,"3422 E 59th St S,Tulsa,OK"
46,22236496,309000,4,2451,36.106995,12704 E 39th St,74146,https://www.zillow.com/homedetails/12704-E-39th-St-Tulsa-OK-74146/22236496_zpid/,-95.836655,4.0,0.0,0.0,0.0,1975.0,15289.56,1.0,Duplex,"12704 E 39th St,Tulsa,OK"
47,22140389,170000,3,1512,36.171227,1048 N Irvington Ave,74115,https://www.zillow.com/homedetails/1048-N-Irvington-Ave-Tulsa-OK-74115/22140389_zpid/,-95.91318,2.0,0.0,0.0,0.0,1965.0,58413.96,1.0,Duplex,"1048 N Irvington Ave,Tulsa,OK"
48,22140397,160000,6,1512,36.174744,1324 N Irvington Ave,74115,https://www.zillow.com/homedetails/1324-N-Irvington-Ave-Tulsa-OK-74115/22140397_zpid/,-95.91318,0.0,0.0,0.0,0.0,1965.0,9016.92,1.0,Duplex,"1324 N Irvington Ave,Tulsa,OK"
49,2053892150,220000,3,1992,36.055668,7445 S Atlanta Ave E,74136,https://www.zillow.com/homedetails/7445-S-Atlanta-Ave-E-Tulsa-OK-74136/2053892150_zpid/,-95.955055,2.0,1.0,0.0,0.0,1978.0,3789.72,1.0,Duplex,"7445 S Atlanta Ave E,Tulsa,OK"
50,22236012,225000,2,2268,36.11611,9766 E 33rd St,74146,https://www.zillow.com/homedetails/9766-E-33rd-St-Tulsa-OK-74146/22236012_zpid/,-95.86593,4.0,0.0,0.0,0.0,1974.0,10497.96,1.0,Duplex,"9766 E 33rd St,Tulsa,OK"
51,22108935,102000,4,1220,36.141953,1415 S 112th East Ave,74128,https://www.zillow.com/homedetails/1415-S-112th-East-Ave-Tulsa-OK-74128/22108935_zpid/,-95.85146,2.0,0.0,0.0,0.0,1982.0,10280.16,1.0,Duplex,"1415 S 112th East Ave,Tulsa,OK"
52,22131421,225000,3,2202,36.05878,6713 E 73rd St,74133,https://www.zillow.com/homedetails/6713-E-73rd-St-Tulsa-OK-74133/22131421_zpid/,-95.90251,0.0,0.0,0.0,0.0,1970.0,18687.24,1.0,Duplex,"6713 E 73rd St,Tulsa,OK"
53,345024440,225000,4,2202,36.058807,6713 E 73rd St S,74133,https://www.zillow.com/homedetails/6713-E-73rd-St-S-Tulsa-OK-74133/345024440_zpid/,-95.90253,4.0,0.0,0.0,0.0,1970.0,7013.16,1.0,Duplex,"6713 E 73rd St S,Tulsa,OK"
54,347673462,340000,2,2046,36.132973,3134 E 21st St S,74114,https://www.zillow.com/homedetails/3134-E-21st-St-S-Tulsa-OK-74114/347673462_zpid/,-95.94331,2.0,0.0,0.0,0.0,1958.0,8276.4,1.0,Duplex,"3134 E 21st St S,Tulsa,OK"
55,348428953,310000,2,1246,36.05928,7204 S 66th East Ave,74133,https://www.zillow.com/homedetails/7204-S-66th-East-Ave-Tulsa-OK-74133/348428953_zpid/,-95.9039,1.0,1.0,0.0,0.0,1970.0,18077.4,2.0,Duplex,"7204 S 66th East Ave,Tulsa,OK"
56,2054147658,187000,2,4618,36.15376,3 N Phoenix Ave #1,74127,https://www.zillow.com/homedetails/3-N-Phoenix-Ave-1-Tulsa-OK-74127/2054147658_zpid/,-96.00518,3.0,0.0,0.0,0.0,1970.0,8581.32,2.0,Duplex,"3 N Phoenix Ave #1,Tulsa,OK"
57,2054436377,315000,2,1918,36.174114,1323 N Cheyenne Ave #A,74106,https://www.zillow.com/homedetails/1323-N-Cheyenne-Ave-A-Tulsa-OK-74106/2054436377_zpid/,-95.99766,4.0,0.0,0.0,0.0,1930.0,6664.68,1.0,Duplex,"1323 N Cheyenne Ave #A,Tulsa,OK"
59,22098889,80000,1,1602,36.056988,517 S Xanthus Ave,74104,https://www.zillow.com/homedetails/517-S-Xanthus-Ave-Tulsa-OK-74104/22098889_zpid/,-95.96309,0.0,0.0,0.0,0.0,1930.0,13939.2,1.0,Duplex,"517 S Xanthus Ave,Tulsa,OK"
60,22226328,235000,3,1940,36.09704,7409 S Atlanta Ave,74136,https://www.zillow.com/homedetails/7409-S-Atlanta-Ave-Tulsa-OK-74136/22226328_zpid/,-95.95513,2.0,0.0,0.0,0.0,1977.0,96964.56,1.0,Duplex,"7409 S Atlanta Ave,Tulsa,OK"
61,22108628,260000,3,2624,36.139694,1331 E 46th St S,74105,https://www.zillow.com/homedetails/1331-E-46th-St-S-Tulsa-OK-74105/22108628_zpid/,-95.97446,0.0,0.0,0.0,0.0,1960.0,15115.32,1.0,Duplex,"1331 E 46th St S,Tulsa,OK"
62,347197637,35000,4,982,36.11639,1534 S 108th East Pl,74128,https://www.zillow.com/homedetails/1534-S-108th-East-Pl-Tulsa-OK-74128/347197637_zpid/,-95.854774,2.0,0.0,0.0,0.0,1977.0,8581.32,1.0,Duplex,"1534 S 108th East Pl,Tulsa,OK"
63,2061119129,165000,2,1540,36.096848,4606 S Granite Ave UNIT C-2,74135,https://www.zillow.com/homedetails/4606-S-Granite-Ave-UNIT-C-2-Tulsa-OK-74135/2061119129_zpid/,-95.91417,2.0,1.0,0.0,0.0,1978.0,7492.32,2.0,Townhomes,"4606 S Granite Ave UNIT C-2,Tulsa,OK"
64,22148928,215000,2,1643,36.144604,1223 S Lawton Ave,74127,https://www.zillow.com/homedetails/1223-S-Lawton-Ave-Tulsa-OK-74127/22148928_zpid/,-96.00092,0.0,0.0,0.0,0.0,1982.0,12545.28,1.0,Townhomes,"1223 S Lawton Ave,Tulsa,OK"
65,22148989,132500,2,1048,36.143993,1303 S Lawton Ave #A-3,74127,https://www.zillow.com/homedetails/1303-S-Lawton-Ave-A-3-Tulsa-OK-74127/22148989_zpid/,-96.00115,0.0,0.0,0.0,0.0,1982.0,10585.08,1.0,Townhomes,"1303 S Lawton Ave #A-3,Tulsa,OK"
66,22124323,222000,3,1762,36.05849,5743 E 72nd Pl,74136,https://www.zillow.com/homedetails/5743-E-72nd-Pl-Tulsa-OK-74136/22124323_zpid/,-95.91189,0.0,0.0,0.0,0.0,1984.0,12545.28,1.0,Townhomes,"5743 E 72nd Pl,Tulsa,OK"
67,22112039,240000,2,1173,36.068325,1826 E 66th St S,74136,https://www.zillow.com/homedetails/1826-E-66th-St-S-Tulsa-OK-74136/22112039_zpid/,-95.96403,0.0,0.0,0.0,0.0,1980.0,9191.16,1.0,Townhomes,"1826 E 66th St S,Tulsa,OK"
68,89341843,645000,2,2921,36.11235,1330 E 35th Pl,74105,https://www.zillow.com/homedetails/1330-E-35th-Pl-Tulsa-OK-74105/89341843_zpid/,-95.9744,2.0,1.0,0.0,0.0,2008.0,10454.4,3.0,Townhomes,"1330 E 35th Pl,Tulsa,OK"
69,352623655,142000,2,1200,36.034046,2851 E 90th St #6,74137,https://www.zillow.com/homedetails/2851-E-90th-St-6-Tulsa-OK-74137/352623655_zpid/,-95.947495,2.0,0.0,0.0,0.0,1983.0,20168.28,2.0,Townhomes,"2851 E 90th St #6,Tulsa,OK"
70,2078607862,222000,2,1762,36.058487,5743 E 72nd Pl #11,74136,https://www.zillow.com/homedetails/5743-E-72nd-Pl-11-Tulsa-OK-74136/2078607862_zpid/,-95.91192,2.0,1.0,0.0,0.0,1984.0,34543.08,4.0,Townhomes,"5743 E 72nd Pl #11,Tulsa,OK"
71,22108778,82000,2,982,36.14063,11007 E 15th St,74128,https://www.zillow.com/homedetails/11007-E-15th-St-Tulsa-OK-74128/22108778_zpid/,-95.924545,1.0,0.0,0.0,0.0,,6185.52,1.0,Townhomes,"11007 E 15th St,Tulsa,OK"
72,22105970,170000,2,2241,36.09452,4822 S Quaker Ave,74105,https://www.zillow.com/homedetails/4822-S-Quaker-Ave-Tulsa-OK-74105/22105970_zpid/,-95.97382,2.0,1.0,0.0,0.0,1982.0,17511.12,3.0,Townhomes,"4822 S Quaker Ave,Tulsa,OK"
73,89347384,350000,2,1592,36.103664,1343 E 41st Pl,74105,https://www.zillow.com/homedetails/1343-E-41st-Pl-Tulsa-OK-74105/89347384_zpid/,-95.97383,2.0,0.0,0.0,0.0,2008.0,27007.2,1.0,Townhomes,"1343 E 41st Pl,Tulsa,OK"
74,22108901,52500,3,982,36.13928,10928 E 16th St,74128,https://www.zillow.com/homedetails/10928-E-16th-St-Tulsa-OK-74128/22108901_zpid/,-95.853905,1.0,0.0,0.0,0.0,1977.0,8842.68,1.0,Townhomes,"10928 E 16th St,Tulsa,OK"
75,22113135,450000,2,1760,36.135487,1817 S Carson Ave,74119,https://www.zillow.com/homedetails/1817-S-Carson-Ave-Tulsa-OK-74119/22113135_zpid/,-95.99097,2.0,1.0,0.0,0.0,1974.0,7753.68,2.0,Townhomes,"1817 S Carson Ave,Tulsa,OK"
76,22105969,231500,2,1604,36.09452,4824 S Quaker Ave,74105,https://www.zillow.com/homedetails/4824-S-Quaker-Ave-Tulsa-OK-74105/22105969_zpid/,-95.97391,2.0,1.0,0.0,0.0,1982.0,15289.56,2.0,Townhomes,"4824 S Quaker Ave,Tulsa,OK"
77,22235471,260000,5,1370,36.045803,8119 S 84th Ave E,74133,https://www.zillow.com/homedetails/8119-S-84th-Ave-E-Tulsa-OK-74133/22235471_zpid/,-95.88228,2.0,0.0,0.0,0.0,1997.0,58413.96,1.0,Townhomes,"8119 S 84th Ave E,Tulsa,OK"
78,22225690,245000,3,2044,36.054478,7439 S Winston Pl,74136,https://www.zillow.com/homedetails/7439-S-Winston-Pl-Tulsa-OK-74136/22225690_zpid/,-95.923,2.0,1.0,0.0,0.0,1977.0,9016.92,3.0,Townhomes,"7439 S Winston Pl,Tulsa,OK"
79,22124332,185000,2,1909,36.057987,5715 E 72nd Ct,74136,https://www.zillow.com/homedetails/5715-E-72nd-Ct-Tulsa-OK-74136/22124332_zpid/,-95.91269,2.0,0.0,0.0,0.0,1985.0,3789.72,3.0,Townhomes,"5715 E 72nd Ct,Tulsa,OK"
80,22168901,42000,3,800,36.06763,2201 E 66th Pl #7B,74136,https://www.zillow.com/homedetails/2201-E-66th-Pl-7B-Tulsa-OK-74136/22168901_zpid/,-95.96026,0.0,0.0,0.0,0.0,1977.0,10497.96,1.0,Townhomes,"2201 E 66th Pl #7B,Tulsa,OK"
81,22155156,170000,3,1315,36.0779,5903 S Quincy Ave,74105,https://www.zillow.com/homedetails/5903-S-Quincy-Ave-Tulsa-OK-74105/22155156_zpid/,-95.97321,2.0,0.0,0.0,0.0,1984.0,10280.16,2.0,Townhomes,"5903 S Quincy Ave,Tulsa,OK"
82,22108836,50000,2,1436,36.13979,10818 E 15th Pl,74128,https://www.zillow.com/homedetails/10818-E-15th-Pl-Tulsa-OK-74128/22108836_zpid/,-95.85465,2.0,0.0,0.0,0.0,,18687.24,1.0,Townhomes,"10818 E 15th Pl,Tulsa,OK"
83,22148919,170000,3,1643,36.144604,767 W 13th St #13,74127,https://www.zillow.com/homedetails/767-W-13th-St-13-Tulsa-OK-74127/22148919_zpid/,-96.00092,0.0,0.0,0.0,0.0,1982.0,7013.16,1.0,Townhomes,"767 W 13th St #13,Tulsa,OK"
84,22167686,26000,2,978,36.095383,4646 S Darlington Ave APT 18,74135,https://www.zillow.com/homedetails/4646-S-Darlington-Ave-APT-18-Tulsa-OK-74135/22167686_zpid/,-95.91808,0.0,0.0,0.0,0.0,1978.0,8276.4,1.0,Townhomes,"4646 S Darlington Ave APT 18,Tulsa,OK"
85,22164250,377000,3,1695,36.06503,6746 S 78th East Ave,74133,https://www.zillow.com/homedetails/6746-S-78th-East-Ave-Tulsa-OK-74133/22164250_zpid/,-95.89061,0.0,0.0,0.0,0.0,1983.0,18077.4,1.0,Townhomes,"6746 S 78th East Ave,Tulsa,OK"
86,22112326,237000,2,1700,36.088608,5128 S Columbia Ct,74105,https://www.zillow.com/homedetails/5128-S-Columbia-Ct-Tulsa-OK-74105/22112326_zpid/,-95.9499,2.0,1.0,0.0,0.0,1984.0,8581.32,2.0,Townhomes,"5128 S Columbia Ct,Tulsa,OK"
87,22110892,270000,2,1123,36.141113,611 W 15th St,74127,https://www.zillow.com/homedetails/611-W-15th-St-Tulsa-OK-74127/22110892_zpid/,-95.99651,0.0,0.0,0.0,0.0,1950.0,6664.68,1.0,Townhomes,"611 W 15th St,Tulsa,OK"
88,22149070,124000,1,1177,36.14712,1129 S 110th Ave E #14-2C,74128,https://www.zillow.com/homedetails/1129-S-110th-Ave-E-14-2C-Tulsa-OK-74128/22149070_zpid/,-95.854774,1.0,1.0,0.0,0.0,1973.0,17772.48,2.0,Townhomes,"1129 S 110th Ave E #14-2C,Tulsa,OK"
89,22177442,85500,3,954,36.073673,6152 S Madison Pl #6152-A,74136,https://www.zillow.com/homedetails/6152-S-Madison-Pl-6152-A-Tulsa-OK-74136/22177442_zpid/,-95.98,1.0,1.0,0.0,0.0,1968.0,13939.2,1.0,Townhomes,"6152 S Madison Pl #6152-A,Tulsa,OK"
90,22189997,450000,2,1008,36.080017,5705 S Vancouver Ave,74107,https://www.zillow.com/homedetails/5705-S-Vancouver-Ave-Tulsa-OK-74107/22189997_zpid/,-96.01201,0.0,0.0,0.0,0.0,1984.0,96964.56,1.0,Townhomes,"5705 S Vancouver Ave,Tulsa,OK"
91,348805448,119000,2,1177,36.141914,1320 S 110th East Ave #53-2C,74128,https://www.zillow.com/homedetails/1320-S-110th-East-Ave-53-2C-Tulsa-OK-74128/348805448_zpid/,-95.853905,2.0,0.0,0.0,0.0,1979.0,15115.32,2.0,Townhomes,"1320 S 110th East Ave #53-2C,Tulsa,OK"
92,22219855,138000,3,1220,36.034046,2835 E 90th St #518,74137,https://www.zillow.com/homedetails/2835-E-90th-St-518-Tulsa-OK-74137/22219855_zpid/,-95.947495,2.0,0.0,0.0,0.0,1983.0,8581.32,1.0,Townhomes,"2835 E 90th St #518,Tulsa,OK"
93,22155840,145000,2,1340,36.096603,5524 E 46th St S,74135,https://www.zillow.com/homedetails/5524-E-46th-St-S-Tulsa-OK-74135/22155840_zpid/,-95.91493,0.0,0.0,0.0,0.0,1965.0,7013.16,1.0,Townhomes,"5524 E 46th St S,Tulsa,OK"
94,22191893,115000,1,688,36.10427,4124 W 41st St,74107,https://www.zillow.com/homedetails/4124-W-41st-St-Tulsa-OK-74107/22191893_zpid/,-96.0393,1.0,0.0,0.0,0.0,1925.0,7492.32,1.0,SingleFamily,"4124 W 41st St,Tulsa,OK"
95,22108044,82000,1,564,36.09626,4625 S 26th West Ave,74107,https://www.zillow.com/homedetails/4625-S-26th-West-Ave-Tulsa-OK-74107/22108044_zpid/,-96.02145,1.0,0.0,0.0,0.0,1946.0,12545.28,1.0,SingleFamily,"4625 S 26th West Ave,Tulsa,OK"
96,333520003,86500,1,576,36.163143,119 N Atlanta Pl,74110,https://www.zillow.com/homedetails/119-N-Atlanta-Pl-Tulsa-OK-74110/333520003_zpid/,-95.95433,1.0,0.0,0.0,0.0,1918.0,10585.08,1.0,SingleFamily,"119 N Atlanta Pl,Tulsa,OK"
97,22127661,89000,1,576,36.098118,4510 S Waco Ave,74107,https://www.zillow.com/homedetails/4510-S-Waco-Ave-Tulsa-OK-74107/22127661_zpid/,-96.014145,1.0,0.0,0.0,0.0,1940.0,12545.28,1.0,SingleFamily,"4510 S Waco Ave,Tulsa,OK"
98,22107554,75000,1,646,36.164894,716 N Quincy Ave,74106,https://www.zillow.com/homedetails/716-N-Quincy-Ave-Tulsa-OK-74106/22107554_zpid/,-95.97354,0.0,0.0,0.0,0.0,1930.0,9191.16,1.0,SingleFamily,"716 N Quincy Ave,Tulsa,OK"
99,22178015,28300,1,674,36.18749,2320 N Atlanta Pl,74110,https://www.zillow.com/homedetails/2320-N-Atlanta-Pl-Tulsa-OK-74110/22178015_zpid/,-95.98497,1.0,0.0,0.0,0.0,1935.0,10454.4,1.0,SingleFamily,"2320 N Atlanta Pl,Tulsa,OK"
100,22146327,195000,4,1519,36.167877,924 N Urbana Ave,74115,https://www.zillow.com/homedetails/924-N-Urbana-Ave-Tulsa-OK-74115/22146327_zpid/,-95.926704,2.0,0.0,0.0,0.0,1949.0,7492.32,1.0,SingleFamily,"924 N Urbana Ave,Tulsa,OK"
101,22221722,405000,4,2397,36.017036,4305 E 101st Pl S,74137,https://www.zillow.com/homedetails/4305-E-101st-Pl-S-Tulsa-OK-74137/22221722_zpid/,-95.92798,3.0,0.0,0.0,0.0,1975.0,12545.28,1.0,SingleFamily,"4305 E 101st Pl S,Tulsa,OK"
102,78487148,205000,4,1635,36.17198,1214 N Tacoma Ave,74127,https://www.zillow.com/homedetails/1214-N-Tacoma-Ave-Tulsa-OK-74127/78487148_zpid/,-96.00966,2.0,0.0,0.0,0.0,1960.0,10585.08,1.0,SingleFamily,"1214 N Tacoma Ave,Tulsa,OK"
103,22127014,289923,4,1813,36.14899,2413 E 10th St,74104,https://www.zillow.com/homedetails/2413-E-10th-St-Tulsa-OK-74104/22127014_zpid/,-95.957504,2.0,0.0,0.0,0.0,2024.0,12545.28,1.0,SingleFamily,"2413 E 10th St,Tulsa,OK"
104,22188417,298500,4,2052,36.135544,9410 E 17th Pl,74112,https://www.zillow.com/homedetails/9410-E-17th-Pl-Tulsa-OK-74112/22188417_zpid/,-95.87195,2.0,1.0,0.0,0.0,1952.0,9191.16,1.0,SingleFamily,"9410 E 17th Pl,Tulsa,OK"
105,22222441,425000,4,3543,36.037277,3427 E 87th Pl S,74137,https://www.zillow.com/homedetails/3427-E-87th-Pl-S-Tulsa-OK-74137/22222441_zpid/,-95.938286,2.0,1.0,0.0,0.0,1985.0,10454.4,1.0,SingleFamily,"3427 E 87th Pl S,Tulsa,OK"
106,22229077,585000,4,3407,36.01459,10218 S Canton Ave,74137,https://www.zillow.com/homedetails/10218-S-Canton-Ave-Tulsa-OK-74137/22229077_zpid/,-95.91852,3.0,1.0,0.0,0.0,1991.0,20168.28,1.0,SingleFamily,"10218 S Canton Ave,Tulsa,OK"
107,22153434,324950,4,2714,36.067463,6720 E 66th St,74133,https://www.zillow.com/homedetails/6720-E-66th-St-Tulsa-OK-74133/22153434_zpid/,-95.90241,3.0,0.0,0.0,0.0,1966.0,34543.08,2.0,SingleFamily,"6720 E 66th St,Tulsa,OK"
108,347315441,499500,4,2957,36.100563,4361 S 173rd East Ave,74134,https://www.zillow.com/homedetails/4361-S-173rd-East-Ave-Tulsa-OK-74134/347315441_zpid/,-95.784294,3.0,0.0,0.0,0.0,2014.0,6185.52,2.0,SingleFamily,"4361 S 173rd East Ave,Tulsa,OK"
109,22138342,78000,4,1542,36.18805,349 E Young St,74106,https://www.zillow.com/homedetails/349-E-Young-St-Tulsa-OK-74106/22138342_zpid/,-95.98924,2.0,0.0,0.0,0.0,1940.0,17511.12,1.0,SingleFamily,"349 E Young St,Tulsa,OK"
110,22175387,482000,4,2489,36.135273,1579 E 19th St,74120,https://www.zillow.com/homedetails/1579-E-19th-St-Tulsa-OK-74120/22175387_zpid/,-95.96849,2.0,1.0,0.0,0.0,1950.0,27007.2,2.0,SingleFamily,"1579 E 19th St,Tulsa,OK"
111,22239472,430000,4,3347,36.038475,5116 E 86th St,74137,https://www.zillow.com/homedetails/5116-E-86th-St-Tulsa-OK-74137/22239472_zpid/,-95.91826,2.0,1.0,0.0,0.0,1988.0,8842.68,2.0,SingleFamily,"5116 E 86th St,Tulsa,OK"
112,349639701,270000,4,2396,36.063564,6784 S 67th East Ave,74133,https://www.zillow.com/homedetails/6784-S-67th-East-Ave-Tulsa-OK-74133/349639701_zpid/,-95.90202,2.0,0.0,0.0,0.0,1967.0,7753.68,1.0,SingleFamily,"6784 S 67th East Ave,Tulsa,OK"
113,22120460,425000,4,5043,36.07912,2916 E 57th Pl,74105,https://www.zillow.com/homedetails/2916-E-57th-Pl-Tulsa-OK-74105/22120460_zpid/,-95.94454,4.0,1.0,0.0,0.0,1966.0,15289.56,2.0,SingleFamily,"2916 E 57th Pl,Tulsa,OK"
114,22174916,627000,4,2042,36.125305,2640 S Cincinnati Ave,74114,https://www.zillow.com/homedetails/2640-S-Cincinnati-Ave-Tulsa-OK-74114/22174916_zpid/,-95.98162,3.0,1.0,0.0,0.0,1939.0,58413.96,1.0,SingleFamily,"2640 S Cincinnati Ave,Tulsa,OK"
115,22182197,165900,4,1331,36.158478,2833 E 1st Pl,74104,https://www.zillow.com/homedetails/2833-E-1st-Pl-Tulsa-OK-74104/22182197_zpid/,-95.94773,2.0,0.0,0.0,0.0,1949.0,9016.92,1.0,SingleFamily,"2833 E 1st Pl,Tulsa,OK"
116,22221930,700000,4,4786,36.010506,10604 S Hudson Pl,74137,https://www.zillow.com/homedetails/10604-S-Hudson-Pl-Tulsa-OK-74137/22221930_zpid/,-95.912994,3.0,1.0,0.0,0.0,1991.0,3789.72,2.0,SingleFamily,"10604 S Hudson Pl,Tulsa,OK"
117,22227123,625000,4,4455,36.034702,8838 S Quebec Ave,74137,https://www.zillow.com/homedetails/8838-S-Quebec-Ave-Tulsa-OK-74137/22227123_zpid/,-95.93075,3.0,2.0,0.0,0.0,1983.0,10497.96,2.0,SingleFamily,"8838 S Quebec Ave,Tulsa,OK"
118,22230317,355000,4,2825,36.036854,8715 S Pittsburg Ave,74137,https://www.zillow.com/homedetails/8715-S-Pittsburg-Ave-Tulsa-OK-74137/22230317_zpid/,-95.93125,2.0,1.0,0.0,0.0,1993.0,10280.16,2.0,SingleFamily,"8715 S Pittsburg Ave,Tulsa,OK"
119,94724941,1100000,4,4850,36.047745,621 W 80th St,74132,https://www.zillow.com/homedetails/621-W-80th-St-Tulsa-OK-74132/94724941_zpid/,-95.99784,4.0,1.0,0.0,0.0,2013.0,18687.24,2.0,SingleFamily,"621 W 80th St,Tulsa,OK"
120,347683477,1012500,4,4591,36.12804,1360 E 25th St S,74114,https://www.zillow.com/homedetails/1360-E-25th-St-S-Tulsa-OK-74114/347683477_zpid/,-95.97316,3.0,2.0,0.0,0.0,1930.0,7013.16,2.0,SingleFamily,"1360 E 25th St S,Tulsa,OK"
121,2067200021,425000,4,3203,36.100235,18506 E 43rd Pl S,74134,https://www.zillow.com/homedetails/18506-E-43rd-Pl-S-Tulsa-OK-74134/2067200021_zpid/,-95.769936,3.0,1.0,0.0,0.0,2013.0,8276.4,2.0,SingleFamily,"18506 E 43rd Pl S,Tulsa,OK"
122,370667292,610000,4,3446,35.985325,5319 E 123rd St,74008,https://www.zillow.com/homedetails/5319-E-123rd-St-Bixby-OK-74008/370667292_zpid/,-95.91639,3.0,1.0,0.0,0.0,2024.0,18077.4,2.0,SingleFamily,"5319 E 123rd St,Tulsa,OK"
123,22146287,200000,4,1540,36.16808,4620 E King St,74115,https://www.zillow.com/homedetails/4620-E-King-St-Tulsa-OK-74115/22146287_zpid/,-95.925514,2.0,0.0,0.0,0.0,1949.0,8581.32,1.0,SingleFamily,"4620 E King St,Tulsa,OK"
124,22219200,350000,4,2374,36.040257,8431 S Sandusky Ave,74137,https://www.zillow.com/homedetails/8431-S-Sandusky-Ave-Tulsa-OK-74137/22219200_zpid/,-95.928024,2.0,0.0,0.0,0.0,1975.0,6664.68,1.0,SingleFamily,"8431 S Sandusky Ave,Tulsa,OK"
125,89358506,584000,4,4042,36.012844,9487 E 105th St S,74133,https://www.zillow.com/homedetails/9487-E-105th-St-S-Tulsa-OK-74133/89358506_zpid/,-95.871506,3.0,1.0,0.0,0.0,2011.0,17772.48,2.0,SingleFamily,"9487 E 105th St S,Tulsa,OK"
126,22124862,290000,4,1632,36.23118,1730 E 54th St N,74130,https://www.zillow.com/homedetails/1730-E-54th-St-N-Tulsa-OK-74130/22124862_zpid/,-95.96579,2.0,0.0,0.0,0.0,1950.0,13939.2,1.0,SingleFamily,"1730 E 54th St N,Tulsa,OK"
127,22222433,400000,4,2802,36.037678,3430 E 87th St S,74137,https://www.zillow.com/homedetails/3430-E-87th-St-S-Tulsa-OK-74137/22222433_zpid/,-95.938,2.0,1.0,0.0,0.0,1985.0,96964.56,1.0,SingleFamily,"3430 E 87th St S,Tulsa,OK"
128,351329328,389000,4,2748,36.01419,10923 S 86th East Ave,74133,https://www.zillow.com/homedetails/10923-S-86th-East-Ave-Tulsa-OK-74133/351329328_zpid/,-95.8813,3.0,0.0,0.0,0.0,2002.0,15115.32,2.0,SingleFamily,"10923 S 86th East Ave,Tulsa,OK"
129,387141372,299000,4,2556,36.050396,7839 S 69th East Pl,74133,https://www.zillow.com/homedetails/7839-S-69th-East-Pl-Tulsa-OK-74133/387141372_zpid/,-95.89901,2.0,1.0,0.0,0.0,1975.0,8581.32,2.0,SingleFamily,"7839 S 69th East Pl,Tulsa,OK"
130,22161030,425000,4,2150,36.115955,1336 E 32nd Pl,74105,https://www.zillow.com/homedetails/1336-E-32nd-Pl-Tulsa-OK-74105/22161030_zpid/,-95.973816,3.0,0.0,0.0,0.0,1952.0,7013.16,1.0,SingleFamily,"1336 E 32nd Pl,Tulsa,OK"
131,22202474,247000,4,2103,36.00709,8305 E 109th St S,74133,https://www.zillow.com/homedetails/8305-E-109th-St-S-Tulsa-OK-74133/22202474_zpid/,-95.884384,2.0,0.0,0.0,0.0,1980.0,8537.76,1.0,SingleFamily,"8305 E 109th St S,Tulsa,OK"
132,22222579,268000,4,1917,36.028297,7004 E 93rd St,74133,https://www.zillow.com/homedetails/7004-E-93rd-St-Tulsa-OK-74133/22222579_zpid/,-95.89888,2.0,0.0,0.0,0.0,1976.0,13982.76,1.0,SingleFamily,"7004 E 93rd St,Tulsa,OK"
133,22233398,317000,4,2942,36.03783,8624 S 67th Ave E,74133,https://www.zillow.com/homedetails/8624-S-67th-Ave-E-Tulsa-OK-74133/22233398_zpid/,-95.90173,0.0,0.0,0.0,0.0,1978.0,7884.36,1.0,SingleFamily,"8624 S 67th Ave E,Tulsa,OK"
134,353486431,395000,4,3923,36.043198,8324 S 87th East Ave,74133,https://www.zillow.com/homedetails/8324-S-87th-East-Ave-Tulsa-OK-74133/353486431_zpid/,-95.87975,4.0,1.0,0.0,0.0,1997.0,8842.68,2.0,SingleFamily,"8324 S 87th East Ave,Tulsa,OK"
135,22152284,223500,4,2928,36.079388,5823 S Irvington Ave,74135,https://www.zillow.com/homedetails/5823-S-Irvington-Ave-Tulsa-OK-74135/22152284_zpid/,-95.9113,3.0,0.0,0.0,0.0,1962.0,9104.04,1.0,SingleFamily,"5823 S Irvington Ave,Tulsa,OK"
136,22225375,345000,4,3031,36.011696,6706 E 105th St S,74133,https://www.zillow.com/homedetails/6706-E-105th-St-S-Tulsa-OK-74133/22225375_zpid/,-95.90158,3.0,0.0,0.0,0.0,1999.0,11717.639999999998,1.0,SingleFamily,"6706 E 105th St S,Tulsa,OK"
137,22225660,527500,4,4277,36.021626,3931 98th St S,74137,https://www.zillow.com/homedetails/3931-98th-St-S-Tulsa-OK-74137/22225660_zpid/,-95.932014,3.0,2.0,0.0,0.0,1981.0,2178.0,2.0,SingleFamily,"3931 98th St S,Tulsa,OK"
138,22235397,474000,4,3610,36.04692,5618 E 80th Pl,74136,https://www.zillow.com/homedetails/5618-E-80th-Pl-Tulsa-OK-74136/22235397_zpid/,-95.91309,3.0,1.0,0.0,0.0,1993.0,7666.56,1.0,SingleFamily,"5618 E 80th Pl,Tulsa,OK"
139,94723913,289000,4,1987,36.18364,2026 N Kenosha Ct E,74106,https://www.zillow.com/homedetails/2026-N-Kenosha-Ct-E-Tulsa-OK-74106/94723913_zpid/,-95.98208,2.0,0.0,0.0,0.0,2018.0,7187.4,1.0,SingleFamily,"2026 N Kenosha Ct E,Tulsa,OK"
140,22105039,1275000,4,4369,36.117184,1843 E 32nd St,74105,https://www.zillow.com/homedetails/1843-E-32nd-St-Tulsa-OK-74105/22105039_zpid/,-95.96405,4.0,2.0,0.0,0.0,1930.0,7492.32,2.0,SingleFamily,"1843 E 32nd St,Tulsa,OK"
141,22147673,130000,4,1080,36.18736,3804 E Xyler St,74115,https://www.zillow.com/homedetails/3804-E-Xyler-St-Tulsa-OK-74115/22147673_zpid/,-95.93395,2.0,0.0,0.0,0.0,1951.0,12545.28,1.0,SingleFamily,"3804 E Xyler St,Tulsa,OK"
142,295334178,565000,4,2900,36.035744,910 W 88th St S,74132,https://www.zillow.com/homedetails/910-W-88th-St-S-Tulsa-OK-74132/295334178_zpid/,-96.00306,3.0,0.0,0.0,0.0,2024.0,10585.08,2.0,SingleFamily,"910 W 88th St S,Tulsa,OK"
143,22224289,490000,4,3745,36.004154,10949 S Urbana Ave,74137,https://www.zillow.com/homedetails/10949-S-Urbana-Ave-Tulsa-OK-74137/22224289_zpid/,-95.9245,3.0,1.0,0.0,0.0,1987.0,12545.28,2.0,SingleFamily,"10949 S Urbana Ave,Tulsa,OK"
144,2057087119,344990,4,1908,36.10521,4033 S 150th Ave E,74134,https://www.zillow.com/homedetails/4033-S-150th-Ave-E-Tulsa-OK-74134/2057087119_zpid/,-95.80849,2.0,0.0,0.0,0.0,2023.0,9191.16,1.0,SingleFamily,"4033 S 150th Ave E,Tulsa,OK"
145,2136233923,440000,4,2962,36.093853,4828 S 163rd East Ave,74134,https://www.zillow.com/homedetails/4828-S-163rd-East-Ave-Tulsa-OK-74134/2136233923_zpid/,-95.79599,3.0,0.0,0.0,0.0,2009.0,10454.4,1.0,SingleFamily,"4828 S 163rd East Ave,Tulsa,OK"
146,22145172,205000,4,1932,36.130028,7614 E 22nd Pl,74129,https://www.zillow.com/homedetails/7614-E-22nd-Pl-Tulsa-OK-74129/22145172_zpid/,-95.892075,1.0,1.0,0.0,0.0,1958.0,20168.28,1.0,SingleFamily,"7614 E 22nd Pl,Tulsa,OK"
147,22168237,1600000,4,5697,36.119823,2520 E 30th St,74114,https://www.zillow.com/homedetails/2520-E-30th-St-Tulsa-OK-74114/22168237_zpid/,-95.95387,3.0,1.0,0.0,0.0,1950.0,34543.08,2.0,SingleFamily,"2520 E 30th St,Tulsa,OK"
148,22242574,255000,4,1917,36.050514,8620 E 78th Pl,74133,https://www.zillow.com/homedetails/8620-E-78th-Pl-Tulsa-OK-74133/22242574_zpid/,-95.879364,2.0,0.0,0.0,0.0,1981.0,6185.52,1.0,SingleFamily,"8620 E 78th Pl,Tulsa,OK"
149,350934182,395000,4,3284,36.03834,8637 S 73rd East Ave,74133,https://www.zillow.com/homedetails/8637-S-73rd-East-Ave-Tulsa-OK-74133/350934182_zpid/,-95.89447,3.0,1.0,0.0,0.0,1983.0,17511.12,2.0,SingleFamily,"8637 S 73rd East Ave,Tulsa,OK"
150,351344990,375000,4,2959,36.01808,10018 S 86th East Ave,74133,https://www.zillow.com/homedetails/10018-S-86th-East-Ave-Tulsa-OK-74133/351344990_zpid/,-95.8813,2.0,1.0,0.0,0.0,1997.0,27007.2,2.0,SingleFamily,"10018 S 86th East Ave,Tulsa,OK"
151,2067196100,280000,4,2777,36.04293,8321 S 75th East Ave,74133,https://www.zillow.com/homedetails/8321-S-75th-East-Ave-Tulsa-OK-74133/2067196100_zpid/,-95.89264,3.0,0.0,0.0,0.0,1978.0,8842.68,2.0,SingleFamily,"8321 S 75th East Ave,Tulsa,OK"
152,22114715,340000,4,2095,36.131817,2143 S Erie Pl,74114,https://www.zillow.com/homedetails/2143-S-Erie-Pl-Tulsa-OK-74114/22114715_zpid/,-95.91478,0.0,0.0,0.0,0.0,1962.0,7753.68,1.0,SingleFamily,"2143 S Erie Pl,Tulsa,OK"
153,22121511,195000,4,2312,36.099186,2628 W 45th St,74107,https://www.zillow.com/homedetails/2628-W-45th-St-Tulsa-OK-74107/22121511_zpid/,-96.02248,2.0,0.0,0.0,0.0,1971.0,15289.56,1.0,SingleFamily,"2628 W 45th St,Tulsa,OK"
154,22152279,330000,4,2010,36.0791,5834 S Joplin Ave,74135,https://www.zillow.com/homedetails/5834-S-Joplin-Ave-Tulsa-OK-74135/22152279_zpid/,-95.91071,2.0,0.0,0.0,0.0,1961.0,58413.96,1.0,SingleFamily,"5834 S Joplin Ave,Tulsa,OK"
155,22157156,1246000,4,4140,36.10524,3951 S Delaware Ave,74105,https://www.zillow.com/homedetails/3951-S-Delaware-Ave-Tulsa-OK-74105/22157156_zpid/,-95.948845,3.0,1.0,0.0,0.0,1955.0,9016.92,1.0,SingleFamily,"3951 S Delaware Ave,Tulsa,OK"
156,22183898,190007,4,1104,36.157955,119 S 106th Ave E,74128,https://www.zillow.com/homedetails/119-S-106th-Ave-E-Tulsa-OK-74128/22183898_zpid/,-95.857994,2.0,0.0,0.0,0.0,1955.0,3789.72,1.0,SingleFamily,"119 S 106th Ave E,Tulsa,OK"
157,22223363,550000,4,3735,36.0116,4720 E 105th St S,74137,https://www.zillow.com/homedetails/4720-E-105th-St-S-Tulsa-OK-74137/22223363_zpid/,-95.92276,3.0,2.0,0.0,0.0,1984.0,10497.96,2.0,SingleFamily,"4720 E 105th St S,Tulsa,OK"
158,22223530,349900,4,2833,36.044685,8224 S Evanston Ave,74137,https://www.zillow.com/homedetails/8224-S-Evanston-Ave-Tulsa-OK-74137/22223530_zpid/,-95.94708,3.0,1.0,0.0,0.0,1993.0,10280.16,1.0,SingleFamily,"8224 S Evanston Ave,Tulsa,OK"
159,22232474,245000,4,2377,36.065132,9213 E 68th St S,74133,https://www.zillow.com/homedetails/9213-E-68th-St-S-Tulsa-OK-74133/22232474_zpid/,-95.87401,2.0,0.0,0.0,0.0,1977.0,18687.24,1.0,SingleFamily,"9213 E 68th St S,Tulsa,OK"
160,351725443,560000,4,4639,36.01118,10522 S 66th East Ave,74133,https://www.zillow.com/homedetails/10522-S-66th-East-Ave-Tulsa-OK-74133/351725443_zpid/,-95.90291,3.0,2.0,0.0,0.0,1979.0,7013.16,2.0,SingleFamily,"10522 S 66th East Ave,Tulsa,OK"
161,371841169,305900,4,2031,36.190426,2342 W 30th St,74127,https://www.zillow.com/homedetails/2342-W-30th-St-Tulsa-OK-74127/371841169_zpid/,-96.01836,2.0,0.0,0.0,0.0,2024.0,8276.4,1.0,SingleFamily,"2342 W 30th St,Tulsa,OK"
162,22119426,155000,4,1200,36.190716,2546 N Owasso Ave,74106,https://www.zillow.com/homedetails/2546-N-Owasso-Ave-Tulsa-OK-74106/22119426_zpid/,-95.97696,2.0,0.0,0.0,0.0,1940.0,18077.4,1.0,SingleFamily,"2546 N Owasso Ave,Tulsa,OK"
163,22127223,265000,4,2770,36.11003,3722 S Granite Ave,74135,https://www.zillow.com/homedetails/3722-S-Granite-Ave-Tulsa-OK-74135/22127223_zpid/,-95.91468,3.0,0.0,0.0,0.0,1960.0,8581.32,1.0,SingleFamily,"3722 S Granite Ave,Tulsa,OK"
164,22163055,485000,4,3362,36.079437,5810 S New Haven Ave,74135,https://www.zillow.com/homedetails/5810-S-New-Haven-Ave-Tulsa-OK-74135/22163055_zpid/,-95.93305,4.0,0.0,0.0,0.0,1965.0,6664.68,2.0,SingleFamily,"5810 S New Haven Ave,Tulsa,OK"
165,22232735,282000,4,1889,36.024014,8960 E 95th Pl,74133,https://www.zillow.com/homedetails/8960-E-95th-Pl-Tulsa-OK-74133/22232735_zpid/,-95.87409,2.0,0.0,0.0,0.0,1993.0,17772.48,1.0,SingleFamily,"8960 E 95th Pl,Tulsa,OK"
166,22241039,290000,4,2458,36.04913,7912 S 76th Ave E,74133,https://www.zillow.com/homedetails/7912-S-76th-Ave-E-Tulsa-OK-74133/22241039_zpid/,-95.89255,2.0,1.0,0.0,0.0,1990.0,13939.2,2.0,SingleFamily,"7912 S 76th Ave E,Tulsa,OK"
167,70507013,450000,4,3320,36.02663,9410 S 73rd Ave E,74133,https://www.zillow.com/homedetails/9410-S-73rd-Ave-E-Tulsa-OK-74133/70507013_zpid/,-95.894135,3.0,0.0,0.0,0.0,2005.0,96964.56,2.0,SingleFamily,"9410 S 73rd Ave E,Tulsa,OK"
168,81442677,159500,4,864,36.152493,5912 W 2nd St,74127,https://www.zillow.com/homedetails/5912-W-2nd-St-Tulsa-OK-74127/81442677_zpid/,-96.06159,1.0,0.0,0.0,0.0,1935.0,15115.32,1.0,SingleFamily,"5912 W 2nd St,Tulsa,OK"
169,22155318,881325,4,3391,36.110847,1043 E 36th Pl,74105,https://www.zillow.com/homedetails/1043-E-36th-Pl-Tulsa-OK-74105/22155318_zpid/,-95.97836,4.0,1.0,0.0,0.0,2023.0,8581.32,2.0,SingleFamily,"1043 E 36th Pl,Tulsa,OK"
170,22222073,526750,4,3521,36.006775,6818 E 108th St S,74133,https://www.zillow.com/homedetails/6818-E-108th-St-S-Tulsa-OK-74133/22222073_zpid/,-95.89981,3.0,0.0,0.0,0.0,1981.0,7013.16,2.0,SingleFamily,"6818 E 108th St S,Tulsa,OK"
171,22225117,365000,4,3544,36.01763,10033 S 69th Ave E,74133,https://www.zillow.com/homedetails/10033-S-69th-Ave-E-Tulsa-OK-74133/22225117_zpid/,-95.89926,2.0,1.0,0.0,0.0,1990.0,8537.76,1.0,SingleFamily,"10033 S 69th Ave E,Tulsa,OK"
172,22225165,310000,4,3033,36.01902,7009 E 100th St S,74133,https://www.zillow.com/homedetails/7009-E-100th-St-S-Tulsa-OK-74133/22225165_zpid/,-95.89823,2.0,1.0,0.0,0.0,1981.0,13982.76,2.0,SingleFamily,"7009 E 100th St S,Tulsa,OK"
173,22229924,510000,4,3556,35.999496,5908 E 113th St,74137,https://www.zillow.com/homedetails/5908-E-113th-St-Tulsa-OK-74137/22229924_zpid/,-95.9079,2.0,1.0,0.0,0.0,1991.0,7884.36,2.0,SingleFamily,"5908 E 113th St,Tulsa,OK"
174,22240825,305000,4,2682,36.05062,7803 S 80th Ave E,74133,https://www.zillow.com/homedetails/7803-S-80th-Ave-E-Tulsa-OK-74133/22240825_zpid/,-95.88675,2.0,1.0,0.0,0.0,1978.0,8842.68,1.0,SingleFamily,"7803 S 80th Ave E,Tulsa,OK"
175,384381335,240000,4,2059,36.086697,5193 S 33rd West Ave,74107,https://www.zillow.com/homedetails/5193-S-33rd-West-Ave-Tulsa-OK-74107/384381335_zpid/,-96.029015,2.0,0.0,0.0,0.0,1968.0,9104.04,1.0,SingleFamily,"5193 S 33rd West Ave,Tulsa,OK"
176,22183426,159000,4,1332,36.128162,8130 E 24th St,74129,https://www.zillow.com/homedetails/8130-E-24th-St-Tulsa-OK-74129/22183426_zpid/,-95.88534,0.0,0.0,0.0,0.0,1964.0,11717.639999999998,1.0,SingleFamily,"8130 E 24th St,Tulsa,OK"
177,179132526,494000,4,3477,36.097733,18604 E 45th Pl S,74134,https://www.zillow.com/homedetails/18604-E-45th-Pl-S-Tulsa-OK-74134/179132526_zpid/,-95.76902,3.0,1.0,0.0,0.0,2017.0,2178.0,2.0,SingleFamily,"18604 E 45th Pl S,Tulsa,OK"
178,22154821,449000,4,3284,36.09585,3762 E 47th St S,74135,https://www.zillow.com/homedetails/3762-E-47th-St-S-Tulsa-OK-74135/22154821_zpid/,-95.93293,3.0,0.0,0.0,0.0,1959.0,7666.56,2.0,SingleFamily,"3762 E 47th St S,Tulsa,OK"
179,58609189,342000,4,2299,36.020626,8404 E 98th Pl S,74133,https://www.zillow.com/homedetails/8404-E-98th-Pl-S-Tulsa-OK-74133/58609189_zpid/,-95.88285,2.0,1.0,0.0,0.0,2003.0,7187.4,2.0,SingleFamily,"8404 E 98th Pl S,Tulsa,OK"
180,22227826,315000,4,2798,36.05113,3145 E 78th Pl S,74136,https://www.zillow.com/homedetails/3145-E-78th-Pl-S-Tulsa-OK-74136/22227826_zpid/,-95.941986,3.0,0.0,0.0,0.0,1970.0,7492.32,1.0,SingleFamily,"3145 E 78th Pl S,Tulsa,OK"
181,22239793,432000,4,3129,36.0378,8622 S Fulton Ave,74137,https://www.zillow.com/homedetails/8622-S-Fulton-Ave-Tulsa-OK-74137/22239793_zpid/,-95.91523,2.0,1.0,0.0,0.0,1991.0,12545.28,2.0,SingleFamily,"8622 S Fulton Ave,Tulsa,OK"
182,89336709,440000,4,2846,36.123142,6715 W 27th St,74107,https://www.zillow.com/homedetails/6715-W-27th-St-Tulsa-OK-74107/89336709_zpid/,-96.06819,3.0,1.0,0.0,0.0,2020.0,10585.08,2.0,SingleFamily,"6715 W 27th St,Tulsa,OK"
183,89355271,430000,4,3073,36.100666,4322 S 185th East Ave,74134,https://www.zillow.com/homedetails/4322-S-185th-East-Ave-Tulsa-OK-74134/89355271_zpid/,-95.77042,3.0,0.0,0.0,0.0,2015.0,12545.28,2.0,SingleFamily,"4322 S 185th East Ave,Tulsa,OK"
184,244976886,900000,4,4164,36.018295,10024 S Hudson Ave,74137,https://www.zillow.com/homedetails/10024-S-Hudson-Ave-Tulsa-OK-74137/244976886_zpid/,-95.91519,4.0,1.0,0.0,0.0,2018.0,9191.16,2.0,SingleFamily,"10024 S Hudson Ave,Tulsa,OK"
185,351719209,425000,4,2207,35.982117,12463 S Maplewood Ave,74008,https://www.zillow.com/homedetails/12463-S-Maplewood-Ave-Bixby-OK-74008/351719209_zpid/,-95.90783,3.0,0.0,0.0,0.0,2024.0,10454.4,1.0,SingleFamily,"12463 S Maplewood Ave,Tulsa,OK"
186,365352285,365000,4,3544,36.017673,10033 S 69th East Ave,74133,https://www.zillow.com/homedetails/10033-S-69th-East-Ave-Tulsa-OK-74133/365352285_zpid/,-95.89926,2.0,1.0,0.0,0.0,1990.0,20168.28,2.0,SingleFamily,"10033 S 69th East Ave,Tulsa,OK"
187,2067198136,305000,4,2682,36.0506,7803 S 80th East Ave,74133,https://www.zillow.com/homedetails/7803-S-80th-East-Ave-Tulsa-OK-74133/2067198136_zpid/,-95.886765,2.0,1.0,0.0,0.0,1978.0,34543.08,2.0,SingleFamily,"7803 S 80th East Ave,Tulsa,OK"
188,22174078,328000,4,2392,36.084267,5423 S 72nd Ave E,74145,https://www.zillow.com/homedetails/5423-S-72nd-Ave-E-Tulsa-OK-74145/22174078_zpid/,-95.89543,2.0,1.0,0.0,0.0,1965.0,6185.52,1.0,SingleFamily,"5423 S 72nd Ave E,Tulsa,OK"
189,22232123,349900,4,2774,36.046078,8525 E 81st Pl,74133,https://www.zillow.com/homedetails/8525-E-81st-Pl-Tulsa-OK-74133/22232123_zpid/,-95.88061,2.0,1.0,0.0,0.0,1997.0,17511.12,2.0,SingleFamily,"8525 E 81st Pl,Tulsa,OK"
190,22239081,628000,4,4337,36.040905,8416 S Canton Ave,74137,https://www.zillow.com/homedetails/8416-S-Canton-Ave-Tulsa-OK-74137/22239081_zpid/,-95.918396,3.0,1.0,0.0,0.0,1991.0,27007.2,2.0,SingleFamily,"8416 S Canton Ave,Tulsa,OK"
191,22154910,492000,4,2760,36.09348,3643 E 48th Pl,74135,https://www.zillow.com/homedetails/3643-E-48th-Pl-Tulsa-OK-74135/22154910_zpid/,-95.935555,2.0,1.0,0.0,0.0,1964.0,8842.68,1.0,SingleFamily,"3643 E 48th Pl,Tulsa,OK"
192,22153283,320000,4,2857,36.09183,4844 S 70th Ave E,74145,https://www.zillow.com/homedetails/4844-S-70th-Ave-E-Tulsa-OK-74145/22153283_zpid/,-95.89943,0.0,0.0,0.0,0.0,1969.0,7753.68,1.0,SingleFamily,"4844 S 70th Ave E,Tulsa,OK"
193,22221792,300000,4,2660,36.01392,10319 S Sandusky Ave,74137,https://www.zillow.com/homedetails/10319-S-Sandusky-Ave-Tulsa-OK-74137/22221792_zpid/,-95.92692,2.0,1.0,0.0,0.0,1974.0,15289.56,2.0,SingleFamily,"10319 S Sandusky Ave,Tulsa,OK"
194,22224525,380000,4,3075,36.017876,10003 S 87th Ave E,74133,https://www.zillow.com/homedetails/10003-S-87th-Ave-E-Tulsa-OK-74133/22224525_zpid/,-95.87917,3.0,1.0,0.0,0.0,1997.0,58413.96,1.0,SingleFamily,"10003 S 87th Ave E,Tulsa,OK"
195,89358635,322000,4,2038,36.100742,13325 E 43rd Pl,74134,https://www.zillow.com/homedetails/13325-E-43rd-Pl-Tulsa-OK-74134/89358635_zpid/,-95.82742,2.0,0.0,0.0,0.0,2018.0,9016.92,1.0,SingleFamily,"13325 E 43rd Pl,Tulsa,OK"
196,22101066,384900,4,1865,36.134884,2418 E 19th St,74104,https://www.zillow.com/homedetails/2418-E-19th-St-Tulsa-OK-74104/22101066_zpid/,-95.95739,3.0,0.0,0.0,0.0,1939.0,3789.72,2.0,SingleFamily,"2418 E 19th St,Tulsa,OK"
197,22227075,632000,4,3971,36.03402,8791 S Richmond Ave,74137,https://www.zillow.com/homedetails/8791-S-Richmond-Ave-Tulsa-OK-74137/22227075_zpid/,-95.92961,3.0,1.0,0.0,0.0,1987.0,10497.96,2.0,SingleFamily,"8791 S Richmond Ave,Tulsa,OK"
198,352623305,345000,4,2392,36.043438,8228 S 72nd East Ave,74133,https://www.zillow.com/homedetails/8228-S-72nd-East-Ave-Tulsa-OK-74133/352623305_zpid/,-95.896355,2.0,1.0,0.0,0.0,2000.0,10280.16,1.0,SingleFamily,"8228 S 72nd East Ave,Tulsa,OK"
199,353696015,380000,4,3075,36.017868,10003 S 87th East Ave,74133,https://www.zillow.com/homedetails/10003-S-87th-East-Ave-Tulsa-OK-74133/353696015_zpid/,-95.87918,3.0,1.0,0.0,0.0,1997.0,18687.24,2.0,SingleFamily,"10003 S 87th East Ave,Tulsa,OK"
200,2061890233,328000,4,2392,36.08429,5423 S 72nd East Ave,74145,https://www.zillow.com/homedetails/5423-S-72nd-East-Ave-Tulsa-OK-74145/2061890233_zpid/,-95.89547,2.0,1.0,0.0,0.0,1965.0,7013.16,1.0,SingleFamily,"5423 S 72nd East Ave,Tulsa,OK"
201,22138116,128000,4,1680,36.184097,3737 E Virgin St,74115,https://www.zillow.com/homedetails/3737-E-Virgin-St-Tulsa-OK-74115/22138116_zpid/,-95.93427,2.0,0.0,0.0,0.0,1950.0,8276.4,1.0,SingleFamily,"3737 E Virgin St,Tulsa,OK"
202,22145857,350000,4,2826,36.05261,6007 E 77th St N,74136,https://www.zillow.com/homedetails/6007-E-77th-St-N-Tulsa-OK-74136/22145857_zpid/,-95.90873,2.0,1.0,0.0,0.0,1989.0,18077.4,2.0,SingleFamily,"6007 E 77th St N,Tulsa,OK"
203,22180400,285000,4,2410,36.054268,6708 E 76th St,74133,https://www.zillow.com/homedetails/6708-E-76th-St-Tulsa-OK-74133/22180400_zpid/,-95.90348,2.0,1.0,0.0,0.0,1971.0,8581.32,2.0,SingleFamily,"6708 E 76th St,Tulsa,OK"
204,89337218,620000,4,3168,36.012367,2834 E 104th St,74137,https://www.zillow.com/homedetails/2834-E-104th-St-Tulsa-OK-74137/89337218_zpid/,-95.9463,3.0,1.0,0.0,0.0,2018.0,6664.68,2.0,SingleFamily,"2834 E 104th St,Tulsa,OK"
205,124773881,469900,4,3420,36.098713,16983 E 45th St S,74134,https://www.zillow.com/homedetails/16983-E-45th-St-S-Tulsa-OK-74134/124773881_zpid/,-95.78698,3.0,0.0,0.0,0.0,2016.0,17772.48,2.0,SingleFamily,"16983 E 45th St S,Tulsa,OK"
206,352668194,647096,4,3713,35.97932,12762 S Irvington Ave E,74008,https://www.zillow.com/homedetails/12762-S-Irvington-Ave-E-Bixby-OK-74008/352668194_zpid/,-95.913,3.0,1.0,0.0,0.0,2024.0,13939.2,2.0,SingleFamily,"12762 S Irvington Ave E,Tulsa,OK"
207,384180885,321900,4,2067,36.100727,13325 E 43rd Pl S,74134,https://www.zillow.com/homedetails/13325-E-43rd-Pl-S-Tulsa-OK-74134/384180885_zpid/,-95.82746,2.0,0.0,0.0,0.0,2020.0,96964.56,1.0,SingleFamily,"13325 E 43rd Pl S,Tulsa,OK"
208,400031825,320000,4,2511,36.091827,4844 S 70th East Ave,74145,https://www.zillow.com/homedetails/4844-S-70th-East-Ave-Tulsa-OK-74145/400031825_zpid/,-95.8994,2.0,1.0,0.0,0.0,1969.0,15115.32,2.0,SingleFamily,"4844 S 70th East Ave,Tulsa,OK"
209,22127435,183000,4,1615,36.1514,619 S Yorktown Ave,74104,https://www.zillow.com/homedetails/619-S-Yorktown-Ave-Tulsa-OK-74104/22127435_zpid/,-95.94758,2.0,0.0,0.0,0.0,1930.0,8581.32,1.0,SingleFamily,"619 S Yorktown Ave,Tulsa,OK"
210,22184403,200000,4,2537,36.136356,1807 S 119th Pl E,74128,https://www.zillow.com/homedetails/1807-S-119th-Pl-E-Tulsa-OK-74128/22184403_zpid/,-95.84337,2.0,0.0,0.0,0.0,1969.0,7013.16,1.0,SingleFamily,"1807 S 119th Pl E,Tulsa,OK"
211,22188041,468000,4,2862,36.06409,6750 S Atlanta Ave,74136,https://www.zillow.com/homedetails/6750-S-Atlanta-Ave-Tulsa-OK-74136/22188041_zpid/,-95.95605,2.0,1.0,0.0,0.0,1973.0,8537.76,2.0,SingleFamily,"6750 S Atlanta Ave,Tulsa,OK"
212,22228367,278000,4,2487,36.071873,1740 W 63rd St,74132,https://www.zillow.com/homedetails/1740-W-63rd-St-Tulsa-OK-74132/22228367_zpid/,-96.01348,2.0,0.0,0.0,0.0,1976.0,13982.76,2.0,SingleFamily,"1740 W 63rd St,Tulsa,OK"
213,22239797,460000,4,3550,36.037395,5506 E 87th St,74137,https://www.zillow.com/homedetails/5506-E-87th-St-Tulsa-OK-74137/22239797_zpid/,-95.91457,2.0,1.0,0.0,0.0,1991.0,7884.36,2.0,SingleFamily,"5506 E 87th St,Tulsa,OK"
214,22156622,315000,4,2503,36.058735,7102 S 76th Ave E,74133,https://www.zillow.com/homedetails/7102-S-76th-Ave-E-Tulsa-OK-74133/22156622_zpid/,-95.89319,2.0,1.0,0.0,0.0,1972.0,8842.68,1.0,SingleFamily,"7102 S 76th Ave E,Tulsa,OK"
215,22232133,305000,4,2729,36.04563,8518 E 81st Pl,74133,https://www.zillow.com/homedetails/8518-E-81st-Pl-Tulsa-OK-74133/22232133_zpid/,-95.88104,2.0,1.0,0.0,0.0,1997.0,9104.04,2.0,SingleFamily,"8518 E 81st Pl,Tulsa,OK"
216,309691197,616000,4,2547,35.97895,12722 S Maplewood Ave E,74008,https://www.zillow.com/homedetails/12722-S-Maplewood-Ave-E-Bixby-OK-74008/309691197_zpid/,-95.90819,3.0,0.0,0.0,0.0,2021.0,11717.639999999998,2.0,SingleFamily,"12722 S Maplewood Ave E,Tulsa,OK"
217,352408264,200000,4,2537,36.136356,1807 S 119th East Pl,74128,https://www.zillow.com/homedetails/1807-S-119th-East-Pl-Tulsa-OK-74128/352408264_zpid/,-95.84337,2.0,0.0,0.0,0.0,1969.0,2178.0,2.0,SingleFamily,"1807 S 119th East Pl,Tulsa,OK"
218,353285982,335000,4,2080,36.086407,5261 S 69th East Ave,74145,https://www.zillow.com/homedetails/5261-S-69th-East-Ave-Tulsa-OK-74145/353285982_zpid/,-95.898544,2.0,1.0,0.0,0.0,1965.0,7666.56,1.0,SingleFamily,"5261 S 69th East Ave,Tulsa,OK"
219,22139165,137000,4,1443,36.12726,10810 E 25th Pl,74129,https://www.zillow.com/homedetails/10810-E-25th-Pl-Tulsa-OK-74129/22139165_zpid/,-95.856346,2.0,0.0,0.0,0.0,1966.0,7187.4,1.0,SingleFamily,"10810 E 25th Pl,Tulsa,OK"
220,22226680,335000,4,2221,36.02055,9832 S Maplewood Ave,74137,https://www.zillow.com/homedetails/9832-S-Maplewood-Ave-Tulsa-OK-74137/22226680_zpid/,-95.908134,2.0,1.0,0.0,0.0,1977.0,7492.32,1.0,SingleFamily,"9832 S Maplewood Ave,Tulsa,OK"
221,22239341,203000,4,1640,36.06577,6730 S 111th Ave E,74133,https://www.zillow.com/homedetails/6730-S-111th-Ave-E-Tulsa-OK-74133/22239341_zpid/,-95.85298,2.0,0.0,0.0,0.0,1985.0,12545.28,1.0,SingleFamily,"6730 S 111th Ave E,Tulsa,OK"
222,295332830,45000,4,2152,36.181824,3130 E Tecumseh St,74110,https://www.zillow.com/homedetails/3130-E-Tecumseh-St-Tulsa-OK-74110/295332830_zpid/,-95.94288,2.0,0.0,0.0,0.0,1948.0,10585.08,1.0,SingleFamily,"3130 E Tecumseh St,Tulsa,OK"
223,305523213,299000,4,2816,36.120853,9023 E 29th Ct,74129,https://www.zillow.com/homedetails/9023-E-29th-Ct-Tulsa-OK-74129/305523213_zpid/,-95.87396,3.0,0.0,0.0,0.0,1965.0,12545.28,2.0,SingleFamily,"9023 E 29th Ct,Tulsa,OK"
224,22137012,299000,4,1957,36.12405,4977 E 27th St,74114,https://www.zillow.com/homedetails/4977-E-27th-St-Tulsa-OK-74114/22137012_zpid/,-95.9191,2.0,0.0,0.0,0.0,1954.0,9191.16,1.0,SingleFamily,"4977 E 27th St,Tulsa,OK"
225,22219488,460000,4,2877,36.01501,10218 S Granite Ave,74137,https://www.zillow.com/homedetails/10218-S-Granite-Ave-Tulsa-OK-74137/22219488_zpid/,-95.91621,2.0,1.0,0.0,0.0,1988.0,10454.4,1.0,SingleFamily,"10218 S Granite Ave,Tulsa,OK"
226,22232623,450000,4,3662,36.01861,10612 E 100th St,74133,https://www.zillow.com/homedetails/10612-E-100th-St-Tulsa-OK-74133/22232623_zpid/,-95.85814,3.0,2.0,0.0,0.0,1986.0,20168.28,2.0,SingleFamily,"10612 E 100th St,Tulsa,OK"
227,22268885,810000,4,4188,35.992195,5402 E 118th St,74137,https://www.zillow.com/homedetails/5402-E-118th-St-Tulsa-OK-74137/22268885_zpid/,-95.916664,4.0,1.0,0.0,0.0,2000.0,34543.08,1.0,SingleFamily,"5402 E 118th St,Tulsa,OK"
229,22101161,665250,4,4307,36.10049,4416 S Birmingham Ave,74105,https://www.zillow.com/homedetails/4416-S-Birmingham-Ave-Tulsa-OK-74105/22101161_zpid/,-95.953835,3.0,1.0,0.0,0.0,1979.0,17511.12,2.0,SingleFamily,"4416 S Birmingham Ave,Tulsa,OK"
230,22121898,1010500,4,3688,36.105415,3918 S Saint Louis Ave,74105,https://www.zillow.com/homedetails/3918-S-Saint-Louis-Ave-Tulsa-OK-74105/22121898_zpid/,-95.97056,3.0,1.0,0.0,0.0,2023.0,27007.2,2.0,SingleFamily,"3918 S Saint Louis Ave,Tulsa,OK"
231,22156013,499000,4,3397,36.07132,3733 E 64th Pl,74136,https://www.zillow.com/homedetails/3733-E-64th-Pl-Tulsa-OK-74136/22156013_zpid/,-95.9334,3.0,1.0,0.0,0.0,1981.0,8842.68,2.0,SingleFamily,"3733 E 64th Pl,Tulsa,OK"
232,22221572,316132,4,2499,36.043106,8205 S Oswego Ave,74137,https://www.zillow.com/homedetails/8205-S-Oswego-Ave-Tulsa-OK-74137/22221572_zpid/,-95.9327,2.0,0.0,0.0,0.0,1976.0,7753.68,2.0,SingleFamily,"8205 S Oswego Ave,Tulsa,OK"
233,22231564,200000,4,1513,36.11204,12022 E 35th St,74146,https://www.zillow.com/homedetails/12022-E-35th-St-Tulsa-OK-74146/22231564_zpid/,-95.844444,1.0,1.0,0.0,0.0,1966.0,15289.56,1.0,SingleFamily,"12022 E 35th St,Tulsa,OK"
234,2086549930,315000,4,2289,36.058712,7102 E 76th East Ave,74133,https://www.zillow.com/homedetails/7102-E-76th-East-Ave-Tulsa-OK-74133/2086549930_zpid/,-95.89319,2.0,1.0,0.0,0.0,1972.0,58413.96,2.0,SingleFamily,"7102 E 76th East Ave,Tulsa,OK"
235,22173902,335000,4,2080,36.0864,5261 S 69th Ave E,74145,https://www.zillow.com/homedetails/5261-S-69th-Ave-E-Tulsa-OK-74145/22173902_zpid/,-95.89849,0.0,0.0,0.0,0.0,1965.0,9016.92,1.0,SingleFamily,"5261 S 69th Ave E,Tulsa,OK"
236,22175988,775000,4,4246,36.131622,2219 S Terwilleger Blvd E,74114,https://www.zillow.com/homedetails/2219-S-Terwilleger-Blvd-E-Tulsa-OK-74114/22175988_zpid/,-95.97006,3.0,1.0,0.0,0.0,1928.0,3789.72,2.0,SingleFamily,"2219 S Terwilleger Blvd E,Tulsa,OK"
237,22219420,350000,4,3714,36.039932,4607 85th St S,74137,https://www.zillow.com/homedetails/4607-85th-St-S-Tulsa-OK-74137/22219420_zpid/,-95.92576,3.0,2.0,0.0,0.0,1984.0,10497.96,1.0,SingleFamily,"4607 85th St S,Tulsa,OK"
238,22224969,365000,4,3188,36.02256,6708 E 97th St,74133,https://www.zillow.com/homedetails/6708-E-97th-St-Tulsa-OK-74133/22224969_zpid/,-95.902794,2.0,1.0,0.0,0.0,1994.0,10280.16,2.0,SingleFamily,"6708 E 97th St,Tulsa,OK"
239,22226437,421250,4,2431,36.053806,7534 S Richmond Ave,74136,https://www.zillow.com/homedetails/7534-S-Richmond-Ave-Tulsa-OK-74136/22226437_zpid/,-95.92852,2.0,0.0,0.0,0.0,1972.0,18687.24,1.0,SingleFamily,"7534 S Richmond Ave,Tulsa,OK"
240,22241808,470000,4,3424,36.035183,8815 S Lakewood Ave,74137,https://www.zillow.com/homedetails/8815-S-Lakewood-Ave-Tulsa-OK-74137/22241808_zpid/,-95.90911,2.0,1.0,0.0,0.0,1988.0,7013.16,1.0,SingleFamily,"8815 S Lakewood Ave,Tulsa,OK"
241,58609091,1880000,4,8211,36.007183,6201 E 108th St,74137,https://www.zillow.com/homedetails/6201-E-108th-St-Tulsa-OK-74137/58609091_zpid/,-95.90717,3.0,3.0,0.0,0.0,2003.0,8276.4,2.0,SingleFamily,"6201 E 108th St,Tulsa,OK"
242,361413905,273000,4,2276,36.0275,9304 S 85th East Ave,74133,https://www.zillow.com/homedetails/9304-S-85th-East-Ave-Tulsa-OK-74133/361413905_zpid/,-95.8819,2.0,1.0,0.0,0.0,1993.0,18077.4,2.0,SingleFamily,"9304 S 85th East Ave,Tulsa,OK"
243,22233500,385000,4,2524,36.03423,6712 E 89th St S,74133,https://www.zillow.com/homedetails/6712-E-89th-St-S-Tulsa-OK-74133/22233500_zpid/,-95.90132,2.0,1.0,0.0,0.0,1979.0,8581.32,1.0,SingleFamily,"6712 E 89th St S,Tulsa,OK"
244,22173839,335000,4,2744,36.08682,5250 S 68th Ave E,74145,https://www.zillow.com/homedetails/5250-S-68th-Ave-E-Tulsa-OK-74145/22173839_zpid/,-95.90115,2.0,1.0,0.0,0.0,1969.0,6664.68,1.0,SingleFamily,"5250 S 68th Ave E,Tulsa,OK"
245,22177566,308000,4,2565,36.124897,2640 S 80th East Ave,74129,https://www.zillow.com/homedetails/2640-S-80th-East-Ave-Tulsa-OK-74129/22177566_zpid/,-95.88777,2.0,0.0,0.0,0.0,1994.0,17772.48,1.0,SingleFamily,"2640 S 80th East Ave,Tulsa,OK"
246,22227838,430000,4,2424,36.050903,7805 S Harvard Ave,74136,https://www.zillow.com/homedetails/7805-S-Harvard-Ave-Tulsa-OK-74136/22227838_zpid/,-95.94052,2.0,1.0,0.0,0.0,1976.0,13939.2,2.0,SingleFamily,"7805 S Harvard Ave,Tulsa,OK"
247,79763099,495000,4,3602,36.011303,10483 S 86th Ave E,74133,https://www.zillow.com/homedetails/10483-S-86th-Ave-E-Tulsa-OK-74133/79763099_zpid/,-95.881,3.0,0.0,0.0,0.0,2005.0,96964.56,1.0,SingleFamily,"10483 S 86th Ave E,Tulsa,OK"
248,2075854525,350000,4,3714,36.039806,4607 E 85th St,74137,https://www.zillow.com/homedetails/4607-E-85th-St-Tulsa-OK-74137/2075854525_zpid/,-95.92392,3.0,2.0,0.0,0.0,1984.0,15115.32,1.0,SingleFamily,"4607 E 85th St,Tulsa,OK"
249,22124215,310000,4,1978,36.120045,5111 E 30th Pl,74114,https://www.zillow.com/homedetails/5111-E-30th-Pl-Tulsa-OK-74114/22124215_zpid/,-95.91974,3.0,0.0,0.0,0.0,1958.0,8581.32,1.0,SingleFamily,"5111 E 30th Pl,Tulsa,OK"
250,22183077,465000,4,2471,36.100086,3337 E 45th St,74135,https://www.zillow.com/homedetails/3337-E-45th-St-Tulsa-OK-74135/22183077_zpid/,-95.93852,2.0,1.0,0.0,0.0,1952.0,7013.16,1.0,SingleFamily,"3337 E 45th St,Tulsa,OK"
251,22223221,197000,4,1408,36.06357,7624 S Saint Louis Ave,74136,https://www.zillow.com/homedetails/7624-S-Saint-Louis-Ave-Tulsa-OK-74136/22223221_zpid/,-95.96953,2.0,0.0,0.0,0.0,1981.0,8537.76,1.0,SingleFamily,"7624 S Saint Louis Ave,Tulsa,OK"
252,22235284,345000,4,2892,36.056675,10620 E 74th St,74133,https://www.zillow.com/homedetails/10620-E-74th-St-Tulsa-OK-74133/22235284_zpid/,-95.85712,2.0,1.0,0.0,0.0,1992.0,13982.76,2.0,SingleFamily,"10620 E 74th St,Tulsa,OK"
253,54855644,1075000,4,3529,36.105133,4022 S Xanthus Ave,74105,https://www.zillow.com/homedetails/4022-S-Xanthus-Ave-Tulsa-OK-74105/54855644_zpid/,-95.96388,3.0,0.0,0.0,0.0,2001.0,7884.36,1.0,SingleFamily,"4022 S Xanthus Ave,Tulsa,OK"
254,2067203986,335000,4,2744,36.086784,5250 S 68th East Ave,74145,https://www.zillow.com/homedetails/5250-S-68th-East-Ave-Tulsa-OK-74145/2067203986_zpid/,-95.90008,2.0,1.0,0.0,0.0,1969.0,8842.68,1.0,SingleFamily,"5250 S 68th East Ave,Tulsa,OK"
255,22111665,900000,4,4439,36.12847,2550 E 24th St,74114,https://www.zillow.com/homedetails/2550-E-24th-St-Tulsa-OK-74114/22111665_zpid/,-95.953896,4.0,1.0,0.0,0.0,2008.0,9104.04,2.0,SingleFamily,"2550 E 24th St,Tulsa,OK"
256,22143235,247000,4,2452,36.111168,3611 S Braden Pl,74135,https://www.zillow.com/homedetails/3611-S-Braden-Pl-Tulsa-OK-74135/22143235_zpid/,-95.91943,2.0,1.0,0.0,0.0,1961.0,11717.639999999998,2.0,SingleFamily,"3611 S Braden Pl,Tulsa,OK"
257,54855973,387000,4,3579,36.014984,8604 E 103rd St,74133,https://www.zillow.com/homedetails/8604-E-103rd-St-Tulsa-OK-74133/54855973_zpid/,-95.88109,2.0,1.0,0.0,0.0,2001.0,2178.0,1.0,SingleFamily,"8604 E 103rd St,Tulsa,OK"
258,333519591,544000,4,3350,35.98018,6220 E 127th St S,74008,https://www.zillow.com/homedetails/6220-E-127th-St-S-Bixby-OK-74008/333519591_zpid/,-95.90789,3.0,1.0,0.0,0.0,2020.0,7666.56,2.0,SingleFamily,"6220 E 127th St S,Tulsa,OK"
259,348942844,307000,4,2541,36.06325,6648 S 77th East Ave,74133,https://www.zillow.com/homedetails/6648-S-77th-East-Ave-Tulsa-OK-74133/348942844_zpid/,-95.891815,2.0,1.0,0.0,0.0,1972.0,7187.4,2.0,SingleFamily,"6648 S 77th East Ave,Tulsa,OK"
260,353782211,1090000,4,3611,36.126263,3113 E 26th St,74114,https://www.zillow.com/homedetails/3113-E-26th-St-Tulsa-OK-74114/353782211_zpid/,-95.9443,4.0,1.0,0.0,0.0,2024.0,7492.32,2.0,SingleFamily,"3113 E 26th St,Tulsa,OK"
261,2054271021,334990,4,1823,36.107388,3853 S 152nd Ave E,74134,https://www.zillow.com/homedetails/3853-S-152nd-Ave-E-Tulsa-OK-74134/2054271021_zpid/,-95.80662,2.0,0.0,0.0,0.0,2023.0,12545.28,1.0,SingleFamily,"3853 S 152nd Ave E,Tulsa,OK"
262,2056374382,329990,4,1823,36.107334,14926 E 39th Pl S,74134,https://www.zillow.com/homedetails/14926-E-39th-Pl-S-Tulsa-OK-74134/2056374382_zpid/,-95.8494,2.0,0.0,0.0,0.0,2024.0,10585.08,1.0,SingleFamily,"14926 E 39th Pl S,Tulsa,OK"
263,22189232,780000,4,3121,36.11104,3609 S Trenton Ave,74105,https://www.zillow.com/homedetails/3609-S-Trenton-Ave-Tulsa-OK-74105/22189232_zpid/,-95.96904,3.0,1.0,0.0,0.0,1961.0,12545.28,2.0,SingleFamily,"3609 S Trenton Ave,Tulsa,OK"
264,22223787,369000,4,3466,36.049175,7911 S Richmond Ave,74136,https://www.zillow.com/homedetails/7911-S-Richmond-Ave-Tulsa-OK-74136/22223787_zpid/,-95.92916,2.0,1.0,0.0,0.0,1976.0,9191.16,2.0,SingleFamily,"7911 S Richmond Ave,Tulsa,OK"
265,22224722,1270000,4,5964,36.011612,6104 E 105th St,74137,https://www.zillow.com/homedetails/6104-E-105th-St-Tulsa-OK-74137/22224722_zpid/,-95.90841,3.0,2.0,0.0,0.0,1999.0,10454.4,2.0,SingleFamily,"6104 E 105th St,Tulsa,OK"
266,22239890,452000,4,4016,36.03304,9016 S Fulton Ave,74137,https://www.zillow.com/homedetails/9016-S-Fulton-Ave-Tulsa-OK-74137/22239890_zpid/,-95.91502,2.0,1.0,0.0,0.0,1994.0,20168.28,2.0,SingleFamily,"9016 S Fulton Ave,Tulsa,OK"
267,22241495,290000,4,2760,36.071087,6404 S 110th East Ave,74133,https://www.zillow.com/homedetails/6404-S-110th-East-Ave-Tulsa-OK-74133/22241495_zpid/,-95.85401,2.0,1.0,0.0,0.0,1982.0,34543.08,2.0,SingleFamily,"6404 S 110th East Ave,Tulsa,OK"
268,348200315,1165000,4,3899,36.13119,2532 E 22nd Pl S,74114,https://www.zillow.com/homedetails/2532-E-22nd-Pl-S-Tulsa-OK-74114/348200315_zpid/,-95.95458,3.0,1.0,0.0,0.0,2014.0,6185.52,2.0,SingleFamily,"2532 E 22nd Pl S,Tulsa,OK"
269,352709429,495000,4,3531,36.012096,10483 S 86th East Ave,74133,https://www.zillow.com/homedetails/10483-S-86th-East-Ave-Tulsa-OK-74133/352709429_zpid/,-95.88008,3.0,0.0,0.0,0.0,2005.0,17511.12,2.0,SingleFamily,"10483 S 86th East Ave,Tulsa,OK"
270,22132925,375000,4,2244,36.109367,8248 E 37th Pl,74145,https://www.zillow.com/homedetails/8248-E-37th-Pl-Tulsa-OK-74145/22132925_zpid/,-95.8829,3.0,0.0,0.0,0.0,1958.0,27007.2,1.0,SingleFamily,"8248 E 37th Pl,Tulsa,OK"
271,22153873,269500,4,2532,36.062756,7415 E 69th St,74133,https://www.zillow.com/homedetails/7415-E-69th-St-Tulsa-OK-74133/22153873_zpid/,-95.89415,2.0,1.0,0.0,0.0,1971.0,8842.68,2.0,SingleFamily,"7415 E 69th St,Tulsa,OK"
272,89357061,770000,4,3877,36.013702,3011 E 103rd Pl,74137,https://www.zillow.com/homedetails/3011-E-103rd-Pl-Tulsa-OK-74137/89357061_zpid/,-95.943275,4.0,1.0,0.0,0.0,2020.0,7753.68,2.0,SingleFamily,"3011 E 103rd Pl,Tulsa,OK"
273,2066802871,485000,4,2487,35.98153,12556 S Granite Ave E,74008,https://www.zillow.com/homedetails/12556-S-Granite-Ave-E-Bixby-OK-74008/2066802871_zpid/,-95.91452,3.0,0.0,0.0,0.0,2022.0,15289.56,1.0,SingleFamily,"12556 S Granite Ave E,Tulsa,OK"
274,22113983,290000,4,1613,36.143135,1332 S Canton Ave,74112,https://www.zillow.com/homedetails/1332-S-Canton-Ave-Tulsa-OK-74112/22113983_zpid/,-95.919395,2.0,0.0,0.0,0.0,1945.0,58413.96,1.0,SingleFamily,"1332 S Canton Ave,Tulsa,OK"
275,22140699,95000,4,1128,36.166927,7835 E Independence St,74115,https://www.zillow.com/homedetails/7835-E-Independence-St-Tulsa-OK-74115/22140699_zpid/,-95.88909,1.0,0.0,0.0,0.0,,9016.92,1.0,SingleFamily,"7835 E Independence St,Tulsa,OK"
276,22190317,1300000,4,3539,36.124557,2412 E 26th Pl,74114,https://www.zillow.com/homedetails/2412-E-26th-Pl-Tulsa-OK-74114/22190317_zpid/,-95.95707,3.0,1.0,0.0,0.0,1945.0,3789.72,1.0,SingleFamily,"2412 E 26th Pl,Tulsa,OK"
277,347540463,1675000,4,6088,36.122574,2820 S Utica Ave E,74114,https://www.zillow.com/homedetails/2820-S-Utica-Ave-E-Tulsa-OK-74114/347540463_zpid/,-95.967026,4.0,2.0,0.0,0.0,1930.0,10497.96,2.0,SingleFamily,"2820 S Utica Ave E,Tulsa,OK"
278,21769749,330000,4,3042,36.041553,5121 W 85th St S,74131,https://www.zillow.com/homedetails/5121-W-85th-St-S-Tulsa-OK-74131/21769749_zpid/,-96.049904,2.0,1.0,0.0,0.0,1997.0,10280.16,2.0,SingleFamily,"5121 W 85th St S,Tulsa,OK"
279,22140466,172500,4,1416,36.16515,6780 E Haskell Pl,74115,https://www.zillow.com/homedetails/6780-E-Haskell-Pl-Tulsa-OK-74115/22140466_zpid/,-95.89829,2.0,0.0,0.0,0.0,1955.0,18687.24,1.0,SingleFamily,"6780 E Haskell Pl,Tulsa,OK"
280,22168520,295000,4,2560,36.097572,4537 S Lakewood Ave,74135,https://www.zillow.com/homedetails/4537-S-Lakewood-Ave-Tulsa-OK-74135/22168520_zpid/,-95.908,2.0,1.0,0.0,0.0,1978.0,7013.16,1.0,SingleFamily,"4537 S Lakewood Ave,Tulsa,OK"
281,22225905,392000,4,3252,36.029907,7325 E 91st Pl,74133,https://www.zillow.com/homedetails/7325-E-91st-Pl-Tulsa-OK-74133/22225905_zpid/,-95.892975,2.0,1.0,0.0,0.0,1992.0,8276.4,2.0,SingleFamily,"7325 E 91st Pl,Tulsa,OK"
282,22235969,245000,4,2737,36.10935,3753 S 99th East Ave,74146,https://www.zillow.com/homedetails/3753-S-99th-East-Ave-Tulsa-OK-74146/22235969_zpid/,-95.86662,2.0,1.0,0.0,0.0,1976.0,18077.4,2.0,SingleFamily,"3753 S 99th East Ave,Tulsa,OK"
283,22241230,425000,4,2806,36.052048,9027 E 77th Pl S,74133,https://www.zillow.com/homedetails/9027-E-77th-Pl-S-Tulsa-OK-74133/22241230_zpid/,-95.875,2.0,1.0,0.0,0.0,2003.0,8581.32,2.0,SingleFamily,"9027 E 77th Pl S,Tulsa,OK"
284,352833486,289900,4,1614,36.190426,2346 W 30th St,74127,https://www.zillow.com/homedetails/2346-W-30th-St-Tulsa-OK-74127/352833486_zpid/,-96.01836,2.0,0.0,0.0,0.0,2024.0,6664.68,1.0,SingleFamily,"2346 W 30th St,Tulsa,OK"
285,22147127,577500,4,2546,36.140316,1508 S Owasso Ave,74120,https://www.zillow.com/homedetails/1508-S-Owasso-Ave-Tulsa-OK-74120/22147127_zpid/,-95.97715,1.0,1.0,0.0,0.0,1919.0,17772.48,2.0,SingleFamily,"1508 S Owasso Ave,Tulsa,OK"
286,22189185,806000,4,3654,36.108192,1511 E 38th St S,74105,https://www.zillow.com/homedetails/1511-E-38th-St-S-Tulsa-OK-74105/22189185_zpid/,-95.970825,3.0,0.0,0.0,0.0,1945.0,13939.2,1.0,SingleFamily,"1511 E 38th St S,Tulsa,OK"
287,22224401,380000,4,2737,36.06298,4331 E 70th St S,74136,https://www.zillow.com/homedetails/4331-E-70th-St-S-Tulsa-OK-74136/22224401_zpid/,-95.92864,2.0,1.0,0.0,0.0,1990.0,96964.56,1.0,SingleFamily,"4331 E 70th St S,Tulsa,OK"
288,22232101,305000,4,2442,36.04667,6824 E 80th St,74133,https://www.zillow.com/homedetails/6824-E-80th-St-Tulsa-OK-74133/22232101_zpid/,-95.900505,2.0,1.0,0.0,0.0,1979.0,15115.32,2.0,SingleFamily,"6824 E 80th St,Tulsa,OK"
289,22233549,359900,4,2714,36.033623,7006 E 89th Pl S,74133,https://www.zillow.com/homedetails/7006-E-89th-Pl-S-Tulsa-OK-74133/22233549_zpid/,-95.89791,2.0,1.0,0.0,0.0,1979.0,8581.32,1.0,SingleFamily,"7006 E 89th Pl S,Tulsa,OK"
290,22237308,320000,4,2740,36.047592,8007 S Lakewood Ave,74136,https://www.zillow.com/homedetails/8007-S-Lakewood-Ave-Tulsa-OK-74136/22237308_zpid/,-95.90636,3.0,0.0,0.0,0.0,1984.0,7013.16,1.0,SingleFamily,"8007 S Lakewood Ave,Tulsa,OK"
291,82782707,450000,4,3468,36.094444,17013 E 48th St,74134,https://www.zillow.com/homedetails/17013-E-48th-St-Tulsa-OK-74134/82782707_zpid/,-95.78602,3.0,0.0,0.0,0.0,2006.0,8537.76,1.0,SingleFamily,"17013 E 48th St,Tulsa,OK"
292,89352444,653000,4,4169,35.993793,3810 E 117th Pl S,74137,https://www.zillow.com/homedetails/3810-E-117th-Pl-S-Tulsa-OK-74137/89352444_zpid/,-95.93344,3.0,1.0,0.0,0.0,2008.0,13982.76,2.0,SingleFamily,"3810 E 117th Pl S,Tulsa,OK"
293,349650049,699500,4,3780,35.98342,12614 S Granite Ave E,74008,https://www.zillow.com/homedetails/12614-S-Granite-Ave-E-Bixby-OK-74008/349650049_zpid/,-95.91425,3.0,1.0,0.0,0.0,2023.0,7884.36,2.0,SingleFamily,"12614 S Granite Ave E,Tulsa,OK"
294,350916401,589000,4,3421,35.981365,12619 S Granite Ave E,74008,https://www.zillow.com/homedetails/12619-S-Granite-Ave-E-Bixby-OK-74008/350916401_zpid/,-95.914215,3.0,1.0,0.0,0.0,2024.0,8842.68,2.0,SingleFamily,"12619 S Granite Ave E,Tulsa,OK"
295,351727563,339000,4,2280,36.094303,4722 S 175th East Ave,74134,https://www.zillow.com/homedetails/4722-S-175th-East-Ave-Tulsa-OK-74134/351727563_zpid/,-95.78253,2.0,0.0,0.0,0.0,2004.0,9104.04,1.0,SingleFamily,"4722 S 175th East Ave,Tulsa,OK"
296,22218850,530000,4,3679,36.008266,4544 E 107th St S,74137,https://www.zillow.com/homedetails/4544-E-107th-St-S-Tulsa-OK-74137/22218850_zpid/,-95.92422,3.0,1.0,0.0,0.0,1988.0,11717.639999999998,1.0,SingleFamily,"4544 E 107th St S,Tulsa,OK"
297,22218928,432000,4,3036,36.031097,9119 S Canton Ave,74137,https://www.zillow.com/homedetails/9119-S-Canton-Ave-Tulsa-OK-74137/22218928_zpid/,-95.917816,3.0,0.0,0.0,0.0,1998.0,2178.0,1.0,SingleFamily,"9119 S Canton Ave,Tulsa,OK"
298,22219467,492000,4,3130,36.014526,10222 S Fulton Ave E,74137,https://www.zillow.com/homedetails/10222-S-Fulton-Ave-E-Tulsa-OK-74137/22219467_zpid/,-95.91743,2.0,1.0,0.0,0.0,1989.0,7666.56,2.0,SingleFamily,"10222 S Fulton Ave E,Tulsa,OK"
299,22222764,665000,4,3511,35.999653,5642 E 113th St S,74137,https://www.zillow.com/homedetails/5642-E-113th-St-S-Tulsa-OK-74137/22222764_zpid/,-95.91043,3.0,1.0,0.0,0.0,1983.0,7187.4,1.0,SingleFamily,"5642 E 113th St S,Tulsa,OK"
300,295333548,260000,4,1632,36.10871,3750 S 153rd East Ave,74134,https://www.zillow.com/homedetails/3750-S-153rd-East-Ave-Broken-Arrow-OK-74134/295333548_zpid/,-95.806175,2.0,0.0,0.0,0.0,2019.0,7492.32,1.0,SingleFamily,"3750 S 153rd East Ave,Tulsa,OK"
301,351818226,372101,4,2838,36.04806,7926 S 92nd East Pl,74133,https://www.zillow.com/homedetails/7926-S-92nd-East-Pl-Tulsa-OK-74133/351818226_zpid/,-95.87493,3.0,1.0,0.0,0.0,2002.0,12545.28,2.0,SingleFamily,"7926 S 92nd East Pl,Tulsa,OK"
302,22125469,58500,4,1176,36.199417,3120 N Hartford Pl,74106,https://www.zillow.com/homedetails/3120-N-Hartford-Pl-Tulsa-OK-74106/22125469_zpid/,-95.95477,1.0,0.0,0.0,0.0,,10585.08,1.0,SingleFamily,"3120 N Hartford Pl,Tulsa,OK"
303,22157007,625000,4,2991,36.11325,3436 S Gary Ave,74105,https://www.zillow.com/homedetails/3436-S-Gary-Ave-Tulsa-OK-74105/22157007_zpid/,-95.94239,4.0,0.0,0.0,0.0,1953.0,12545.28,1.0,SingleFamily,"3436 S Gary Ave,Tulsa,OK"
304,22174808,704675,4,2856,36.126476,2610 S Cincinnati Ave,74114,https://www.zillow.com/homedetails/2610-S-Cincinnati-Ave-Tulsa-OK-74114/22174808_zpid/,-95.98202,2.0,0.0,0.0,0.0,1936.0,9191.16,2.0,SingleFamily,"2610 S Cincinnati Ave,Tulsa,OK"
305,22219795,385000,4,2750,36.035107,2835 E 89th St S,74137,https://www.zillow.com/homedetails/2835-E-89th-St-S-Tulsa-OK-74137/22219795_zpid/,-95.947136,2.0,1.0,0.0,0.0,1989.0,10454.4,2.0,SingleFamily,"2835 E 89th St S,Tulsa,OK"
306,22276705,280000,4,1512,36.141098,1430 S 93rd East Ave,74112,https://www.zillow.com/homedetails/1430-S-93rd-East-Ave-Tulsa-OK-74112/22276705_zpid/,-95.87363,2.0,0.0,0.0,0.0,1969.0,20168.28,1.0,SingleFamily,"1430 S 93rd East Ave,Tulsa,OK"
307,122063274,330000,4,1917,36.09268,18420 E 49th St S,74134,https://www.zillow.com/homedetails/18420-E-49th-St-S-Tulsa-OK-74134/122063274_zpid/,-95.77139,2.0,0.0,0.0,0.0,2014.0,34543.08,1.0,SingleFamily,"18420 E 49th St S,Tulsa,OK"
308,22129336,267000,4,1923,36.106476,9031 E 40th St S,74145,https://www.zillow.com/homedetails/9031-E-40th-St-S-Tulsa-OK-74145/22129336_zpid/,-95.875084,2.0,1.0,0.0,0.0,1965.0,6185.52,2.0,SingleFamily,"9031 E 40th St S,Tulsa,OK"
309,22153793,307000,4,2541,36.066082,6648 S 77th Ave E,74133,https://www.zillow.com/homedetails/6648-S-77th-Ave-E-Tulsa-OK-74133/22153793_zpid/,-95.89169,2.0,1.0,0.0,0.0,1972.0,17511.12,1.0,SingleFamily,"6648 S 77th Ave E,Tulsa,OK"
310,22218858,599000,4,4055,36.00729,4531 E 108th St S,74137,https://www.zillow.com/homedetails/4531-E-108th-St-S-Tulsa-OK-74137/22218858_zpid/,-95.92435,3.0,1.0,0.0,0.0,1988.0,27007.2,1.0,SingleFamily,"4531 E 108th St S,Tulsa,OK"
311,89339511,630000,4,4673,36.007637,10902 S 91st Ave E,74133,https://www.zillow.com/homedetails/10902-S-91st-Ave-E-Tulsa-OK-74133/89339511_zpid/,-95.87716,4.0,2.0,0.0,0.0,2014.0,8842.68,1.0,SingleFamily,"10902 S 91st Ave E,Tulsa,OK"
312,344545811,789000,4,3533,36.051655,4805 W 77th Pl S,74131,https://www.zillow.com/homedetails/4805-W-77th-Pl-S-Tulsa-OK-74131/344545811_zpid/,-96.043335,5.0,1.0,0.0,0.0,2022.0,7753.68,2.0,SingleFamily,"4805 W 77th Pl S,Tulsa,OK"
313,21781411,164900,4,1224,36.07335,6153 S 34th West Ave,74132,https://www.zillow.com/homedetails/6153-S-34th-West-Ave-Tulsa-OK-74132/21781411_zpid/,-96.030685,1.0,0.0,0.0,0.0,1961.0,15289.56,1.0,SingleFamily,"6153 S 34th West Ave,Tulsa,OK"
314,22118991,260000,4,1664,36.12086,2856 S 73rd Ave E,74129,https://www.zillow.com/homedetails/2856-S-73rd-Ave-E-Tulsa-OK-74129/22118991_zpid/,-95.89641,2.0,1.0,0.0,0.0,1962.0,58413.96,1.0,SingleFamily,"2856 S 73rd Ave E,Tulsa,OK"
315,22137632,375000,4,2229,36.08082,3440 E 57th St S,74135,https://www.zillow.com/homedetails/3440-E-57th-St-S-Tulsa-OK-74135/22137632_zpid/,-95.93673,3.0,0.0,0.0,0.0,1958.0,9016.92,2.0,SingleFamily,"3440 E 57th St S,Tulsa,OK"
316,22222347,610000,4,3833,36.054653,7435 S College Pl,74136,https://www.zillow.com/homedetails/7435-S-College-Pl-Tulsa-OK-74136/22222347_zpid/,-95.94348,3.0,0.0,0.0,0.0,1989.0,3789.72,2.0,SingleFamily,"7435 S College Pl,Tulsa,OK"
317,22236946,275000,4,2018,36.11139,13519 E 36th St S,74134,https://www.zillow.com/homedetails/13519-E-36th-St-S-Tulsa-OK-74134/22236946_zpid/,-95.82502,2.0,1.0,0.0,0.0,1998.0,10497.96,2.0,SingleFamily,"13519 E 36th St S,Tulsa,OK"
318,81440008,335000,4,2446,36.094227,4725 S 176th Pl E,74134,https://www.zillow.com/homedetails/4725-S-176th-Pl-E-Tulsa-OK-74134/81440008_zpid/,-95.77996,3.0,0.0,0.0,0.0,2004.0,10280.16,2.0,SingleFamily,"4725 S 176th Pl E,Tulsa,OK"
319,22102925,232000,4,1496,36.125538,5764 E 26th St,74114,https://www.zillow.com/homedetails/5764-E-26th-St-Tulsa-OK-74114/22102925_zpid/,-95.91076,2.0,0.0,0.0,0.0,1954.0,18687.24,1.0,SingleFamily,"5764 E 26th St,Tulsa,OK"
321,22164835,282000,4,2306,36.07302,6932 E 62nd Pl,74133,https://www.zillow.com/homedetails/6932-E-62nd-Pl-Tulsa-OK-74133/22164835_zpid/,-95.897896,2.0,1.0,0.0,0.0,1970.0,8276.4,1.0,SingleFamily,"6932 E 62nd Pl,Tulsa,OK"
322,22172628,85000,4,1000,36.22287,613 E 47th Pl N,74126,https://www.zillow.com/homedetails/613-E-47th-Pl-N-Tulsa-OK-74126/22172628_zpid/,-95.89694,1.0,0.0,0.0,0.0,,18077.4,1.0,SingleFamily,"613 E 47th Pl N,Tulsa,OK"
323,22180525,150000,4,1213,36.225594,20 W 50th St N,74126,https://www.zillow.com/homedetails/20-W-50th-St-N-Tulsa-OK-74126/22180525_zpid/,-95.99683,2.0,0.0,0.0,0.0,1955.0,8581.32,1.0,SingleFamily,"20 W 50th St N,Tulsa,OK"
324,22234009,298500,4,2457,36.033836,6533 E 89th Pl S,74133,https://www.zillow.com/homedetails/6533-E-89th-Pl-S-Tulsa-OK-74133/22234009_zpid/,-95.90263,2.0,1.0,0.0,0.0,1979.0,6664.68,2.0,SingleFamily,"6533 E 89th Pl S,Tulsa,OK"
325,22155337,379000,4,1781,36.110863,913 E 36th Pl,74105,https://www.zillow.com/homedetails/913-E-36th-Pl-Tulsa-OK-74105/22155337_zpid/,-95.98294,1.0,1.0,0.0,0.0,1939.0,17772.48,2.0,SingleFamily,"913 E 36th Pl,Tulsa,OK"
326,22236017,245000,4,1707,36.115852,10017 E 33rd Pl,74146,https://www.zillow.com/homedetails/10017-E-33rd-Pl-Tulsa-OK-74146/22236017_zpid/,-95.865326,2.0,0.0,0.0,0.0,1976.0,13939.2,1.0,SingleFamily,"10017 E 33rd Pl,Tulsa,OK"
327,22236247,295000,4,3474,36.051758,7739 S Fulton Pl,74136,https://www.zillow.com/homedetails/7739-S-Fulton-Pl-Tulsa-OK-74136/22236247_zpid/,-95.93092,3.0,1.0,0.0,0.0,1990.0,96964.56,3.0,SingleFamily,"7739 S Fulton Pl,Tulsa,OK"
328,21778979,180000,4,2562,36.04443,8217 Hillwood Dr,74131,https://www.zillow.com/homedetails/8217-Hillwood-Dr-Tulsa-OK-74131/21778979_zpid/,-96.063065,0.0,0.0,0.0,0.0,1980.0,15115.32,1.0,SingleFamily,"8217 Hillwood Dr,Tulsa,OK"
329,22236118,343000,4,2544,36.0512,7740 S Braden Ave,74136,https://www.zillow.com/homedetails/7740-S-Braden-Ave-Tulsa-OK-74136/22236118_zpid/,-95.91924,2.0,1.0,0.0,0.0,1993.0,8581.32,2.0,SingleFamily,"7740 S Braden Ave,Tulsa,OK"
330,124773702,351250,4,2324,36.09158,18425 E 50th St,74134,https://www.zillow.com/homedetails/18425-E-50th-St-Tulsa-OK-74134/124773702_zpid/,-95.766945,2.0,0.0,0.0,0.0,,7013.16,1.0,SingleFamily,"18425 E 50th St,Tulsa,OK"
331,244976719,1400000,4,6713,35.99135,11840 S Sheridan Rd,74008,https://www.zillow.com/homedetails/11840-S-Sheridan-Rd-Bixby-OK-74008/244976719_zpid/,-95.90527,4.0,2.0,0.0,0.0,2012.0,8537.76,2.0,SingleFamily,"11840 S Sheridan Rd,Tulsa,OK"
332,348251100,282000,4,2306,36.07385,6932 E 62nd Pl S,74133,https://www.zillow.com/homedetails/6932-E-62nd-Pl-S-Tulsa-OK-74133/348251100_zpid/,-95.89791,2.0,1.0,0.0,0.0,1970.0,13982.76,2.0,SingleFamily,"6932 E 62nd Pl S,Tulsa,OK"
333,22183398,247000,4,2035,36.130486,8125 E 23rd St,74129,https://www.zillow.com/homedetails/8125-E-23rd-St-Tulsa-OK-74129/22183398_zpid/,-95.88554,2.0,1.0,0.0,0.0,1964.0,7884.36,1.0,SingleFamily,"8125 E 23rd St,Tulsa,OK"
334,22239506,350000,4,3342,36.036808,8722 S Erie Ave,74137,https://www.zillow.com/homedetails/8722-S-Erie-Ave-Tulsa-OK-74137/22239506_zpid/,-95.91625,2.0,1.0,0.0,0.0,1990.0,8842.68,2.0,SingleFamily,"8722 S Erie Ave,Tulsa,OK"
335,89348484,160000,4,1471,36.066486,1369 E 67th St S,74136,https://www.zillow.com/homedetails/1369-E-67th-St-S-Tulsa-OK-74136/89348484_zpid/,-95.97263,2.0,0.0,0.0,0.0,2009.0,9104.04,1.0,SingleFamily,"1369 E 67th St S,Tulsa,OK"
336,124775329,539000,4,3385,36.09977,4402 S 173rd Ave E,74134,https://www.zillow.com/homedetails/4402-S-173rd-Ave-E-Tulsa-OK-74134/124775329_zpid/,-95.78484,3.0,1.0,0.0,0.0,2022.0,11717.639999999998,2.0,SingleFamily,"4402 S 173rd Ave E,Tulsa,OK"
337,349004126,260000,4,1664,36.12089,2856 S 73rd East Ave,74129,https://www.zillow.com/homedetails/2856-S-73rd-East-Ave-Tulsa-OK-74129/349004126_zpid/,-95.89634,2.0,1.0,0.0,0.0,1962.0,2178.0,2.0,SingleFamily,"2856 S 73rd East Ave,Tulsa,OK"
338,22149420,200293,4,1396,36.183243,1924 N Main St,74106,https://www.zillow.com/homedetails/1924-N-Main-St-Tulsa-OK-74106/22149420_zpid/,-95.99719,3.0,0.0,0.0,0.0,1950.0,7666.56,1.0,SingleFamily,"1924 N Main St,Tulsa,OK"
339,22149605,1080000,4,3354,36.113926,2252 E 34th St,74105,https://www.zillow.com/homedetails/2252-E-34th-St-Tulsa-OK-74105/22149605_zpid/,-95.95932,3.0,1.0,0.0,0.0,1950.0,7187.4,1.0,SingleFamily,"2252 E 34th St,Tulsa,OK"
340,22181651,70000,4,888,36.23368,5520 N Garrison Pl,74126,https://www.zillow.com/homedetails/5520-N-Garrison-Pl-Tulsa-OK-74126/22181651_zpid/,-95.98586,0.0,0.0,0.0,0.0,1959.0,7492.32,1.0,SingleFamily,"5520 N Garrison Pl,Tulsa,OK"
341,22219264,325000,4,2771,36.044285,8158 S Quebec Ave,74137,https://www.zillow.com/homedetails/8158-S-Quebec-Ave-Tulsa-OK-74137/22219264_zpid/,-95.93082,2.0,1.0,0.0,0.0,1976.0,12545.28,2.0,SingleFamily,"8158 S Quebec Ave,Tulsa,OK"
342,22219743,384900,4,2676,36.03746,8725 S College Ave,74137,https://www.zillow.com/homedetails/8725-S-College-Ave-Tulsa-OK-74137/22219743_zpid/,-95.945885,2.0,1.0,0.0,0.0,1989.0,10585.08,1.0,SingleFamily,"8725 S College Ave,Tulsa,OK"
343,295335401,639000,4,4053,36.10412,16711 E 41st Pl S,74134,https://www.zillow.com/homedetails/16711-E-41st-Pl-S-Tulsa-OK-74134/295335401_zpid/,-95.79056,4.0,1.0,0.0,0.0,2024.0,12545.28,2.0,SingleFamily,"16711 E 41st Pl S,Tulsa,OK"
344,312772512,829000,4,5238,36.05651,7416 W 73rd St,74131,https://www.zillow.com/homedetails/7416-W-73rd-St-Tulsa-OK-74131/312772512_zpid/,-96.081604,2.0,2.0,0.0,0.0,2003.0,9191.16,1.0,SingleFamily,"7416 W 73rd St,Tulsa,OK"
345,2139639912,160000,4,1471,36.066402,1369 E 67th St,74136,https://www.zillow.com/homedetails/1369-E-67th-St-Tulsa-OK-74136/2139639912_zpid/,-95.97264,2.0,0.0,0.0,0.0,2009.0,10454.4,1.0,SingleFamily,"1369 E 67th St,Tulsa,OK"
346,22153909,415000,4,3199,36.05614,7430 E 69th St,74133,https://www.zillow.com/homedetails/7430-E-69th-St-Tulsa-OK-74133/22153909_zpid/,-95.899734,2.0,2.0,0.0,0.0,1971.0,20168.28,2.0,SingleFamily,"7430 E 69th St,Tulsa,OK"
347,22158668,303600,4,1915,36.128735,2413 S Pittsburg Ave,74114,https://www.zillow.com/homedetails/2413-S-Pittsburg-Ave-Tulsa-OK-74114/22158668_zpid/,-95.93113,2.0,0.0,0.0,0.0,1950.0,34543.08,1.0,SingleFamily,"2413 S Pittsburg Ave,Tulsa,OK"
348,22174603,1073500,4,3868,36.130146,2414 S Cincinnati Ave,74114,https://www.zillow.com/homedetails/2414-S-Cincinnati-Ave-Tulsa-OK-74114/22174603_zpid/,-95.98353,3.0,1.0,0.0,0.0,1920.0,6185.52,3.0,SingleFamily,"2414 S Cincinnati Ave,Tulsa,OK"
349,22174977,910000,4,3253,36.12555,1253 E 27th St,74114,https://www.zillow.com/homedetails/1253-E-27th-St-Tulsa-OK-74114/22174977_zpid/,-95.97646,2.0,1.0,0.0,0.0,1927.0,17511.12,3.0,SingleFamily,"1253 E 27th St,Tulsa,OK"
350,22221784,476000,4,2848,36.01394,4228 E 103rd St,74137,https://www.zillow.com/homedetails/4228-E-103rd-St-Tulsa-OK-74137/22221784_zpid/,-95.92952,2.0,1.0,0.0,0.0,1974.0,27007.2,1.0,SingleFamily,"4228 E 103rd St,Tulsa,OK"
351,22233639,301000,4,2785,36.038303,8621 S 72nd East Ave,74133,https://www.zillow.com/homedetails/8621-S-72nd-East-Ave-Tulsa-OK-74133/22233639_zpid/,-95.89577,2.0,1.0,0.0,0.0,1980.0,8842.68,1.0,SingleFamily,"8621 S 72nd East Ave,Tulsa,OK"
352,349062186,581693,4,2929,35.978683,12750 S Irvington Ave E,74008,https://www.zillow.com/homedetails/12750-S-Irvington-Ave-E-Bixby-OK-74008/349062186_zpid/,-95.913025,3.0,1.0,0.0,0.0,2023.0,7753.68,1.0,SingleFamily,"12750 S Irvington Ave E,Tulsa,OK"
353,22118955,61500,4,1367,36.18975,2438 N Quebec Ave,74115,https://www.zillow.com/homedetails/2438-N-Quebec-Ave-Tulsa-OK-74115/22118955_zpid/,-95.930176,2.0,0.0,0.0,0.0,1950.0,15289.56,1.0,SingleFamily,"2438 N Quebec Ave,Tulsa,OK"
354,22120103,90000,4,1272,36.221268,4619 N Hartford Ave,74126,https://www.zillow.com/homedetails/4619-N-Hartford-Ave-Tulsa-OK-74126/22120103_zpid/,-96.03969,1.0,0.0,0.0,0.0,,58413.96,1.0,SingleFamily,"4619 N Hartford Ave,Tulsa,OK"
355,22202329,338000,4,2423,36.009926,8609 E 106th St S,74133,https://www.zillow.com/homedetails/8609-E-106th-St-S-Tulsa-OK-74133/22202329_zpid/,-95.88026,3.0,0.0,0.0,0.0,1981.0,9016.92,2.0,SingleFamily,"8609 E 106th St S,Tulsa,OK"
356,70508756,445000,4,3368,36.011936,10474 S 86th Pl E,74133,https://www.zillow.com/homedetails/10474-S-86th-Pl-E-Tulsa-OK-74133/70508756_zpid/,-95.88023,3.0,0.0,1.0,0.0,2005.0,3789.72,1.0,SingleFamily,"10474 S 86th Pl E,Tulsa,OK"
357,22221490,335000,4,2275,36.04492,3783 E 82nd St S,74137,https://www.zillow.com/homedetails/3783-E-82nd-St-S-Tulsa-OK-74137/22221490_zpid/,-95.93277,2.0,1.0,0.0,0.0,1975.0,10497.96,1.0,SingleFamily,"3783 E 82nd St S,Tulsa,OK"
358,79760846,310000,4,2743,36.092606,4910 S 186th East Ave,74134,https://www.zillow.com/homedetails/4910-S-186th-East-Ave-Tulsa-OK-74134/79760846_zpid/,-95.770386,2.0,1.0,0.0,0.0,2006.0,10280.16,2.0,SingleFamily,"4910 S 186th East Ave,Tulsa,OK"
359,347226884,445000,4,3368,36.012226,10474 S 86th East Pl,74133,https://www.zillow.com/homedetails/10474-S-86th-East-Pl-Tulsa-OK-74133/347226884_zpid/,-95.88052,3.0,1.0,0.0,0.0,2005.0,18687.24,2.0,SingleFamily,"10474 S 86th East Pl,Tulsa,OK"
360,22104980,800000,4,4464,36.064785,6752 S Evanston Ave,74136,https://www.zillow.com/homedetails/6752-S-Evanston-Ave-Tulsa-OK-74136/22104980_zpid/,-95.945694,3.0,1.0,0.0,0.0,1979.0,7013.16,2.0,SingleFamily,"6752 S Evanston Ave,Tulsa,OK"
361,22166919,325000,4,1499,36.147102,1119 S Evanston Ave,74104,https://www.zillow.com/homedetails/1119-S-Evanston-Ave-Tulsa-OK-74104/22166919_zpid/,-95.947136,3.0,0.0,0.0,0.0,1926.0,8276.4,1.0,SingleFamily,"1119 S Evanston Ave,Tulsa,OK"
362,22169382,511000,4,2936,36.06843,3535 E 66th St,74136,https://www.zillow.com/homedetails/3535-E-66th-St-Tulsa-OK-74136/22169382_zpid/,-95.937164,2.0,1.0,0.0,0.0,1974.0,18077.4,1.0,SingleFamily,"3535 E 66th St,Tulsa,OK"
363,22221715,481000,4,2868,36.014328,5835 E 103rd St,74137,https://www.zillow.com/homedetails/5835-E-103rd-St-Tulsa-OK-74137/22221715_zpid/,-95.91006,2.0,1.0,0.0,0.0,1992.0,8581.32,2.0,SingleFamily,"5835 E 103rd St,Tulsa,OK"
364,22225016,489900,4,2599,36.007915,10735 S Quebec Ave,74137,https://www.zillow.com/homedetails/10735-S-Quebec-Ave-Tulsa-OK-74137/22225016_zpid/,-95.930176,2.0,1.0,0.0,0.0,1974.0,6664.68,2.0,SingleFamily,"10735 S Quebec Ave,Tulsa,OK"
365,22237307,317000,4,2276,36.04783,7961 S Lakewood Ave,74136,https://www.zillow.com/homedetails/7961-S-Lakewood-Ave-Tulsa-OK-74136/22237307_zpid/,-95.90638,3.0,1.0,0.0,0.0,1987.0,17772.48,2.0,SingleFamily,"7961 S Lakewood Ave,Tulsa,OK"
366,82782029,520000,4,2783,36.052734,543 W 77th St,74132,https://www.zillow.com/homedetails/543-W-77th-St-Tulsa-OK-74132/82782029_zpid/,-95.99627,2.0,2.0,0.0,0.0,2007.0,13939.2,2.0,SingleFamily,"543 W 77th St,Tulsa,OK"
367,22172054,40000,4,900,36.216015,4241 N Hartford Ave,74106,https://www.zillow.com/homedetails/4241-N-Hartford-Ave-Tulsa-OK-74106/22172054_zpid/,-95.98424,1.0,0.0,0.0,0.0,1952.0,96964.56,1.0,SingleFamily,"4241 N Hartford Ave,Tulsa,OK"
368,22233389,232000,4,3163,36.037395,8635 S 66th East Ave,74133,https://www.zillow.com/homedetails/8635-S-66th-East-Ave-Tulsa-OK-74133/22233389_zpid/,-95.90216,3.0,0.0,0.0,0.0,1980.0,15115.32,2.0,SingleFamily,"8635 S 66th East Ave,Tulsa,OK"
369,2056394930,1500000,4,4000,36.124054,1257 E 28th St,74114,https://www.zillow.com/homedetails/1257-E-28th-St-Tulsa-OK-74114/2056394930_zpid/,-95.97634,3.0,1.0,0.0,0.0,2023.0,8581.32,2.0,SingleFamily,"1257 E 28th St,Tulsa,OK"
370,22136623,235000,4,3170,36.125935,2527 S 96th Ave E,74129,https://www.zillow.com/homedetails/2527-S-96th-Ave-E-Tulsa-OK-74129/22136623_zpid/,-95.86693,2.0,1.0,0.0,0.0,1975.0,7013.16,1.0,SingleFamily,"2527 S 96th Ave E,Tulsa,OK"
371,22219113,385000,4,2892,36.038055,8616 S Pittsburg Ave,74137,https://www.zillow.com/homedetails/8616-S-Pittsburg-Ave-Tulsa-OK-74137/22219113_zpid/,-95.93188,2.0,1.0,0.0,0.0,1992.0,8537.76,2.0,SingleFamily,"8616 S Pittsburg Ave,Tulsa,OK"
372,22222823,538000,4,3568,36.004658,10927 S Canton Ave,74137,https://www.zillow.com/homedetails/10927-S-Canton-Ave-Tulsa-OK-74137/22222823_zpid/,-95.91906,2.0,1.0,0.0,0.0,1994.0,13982.76,2.0,SingleFamily,"10927 S Canton Ave,Tulsa,OK"
373,78480464,150000,4,2030,36.187588,1304 W Xyler St,74127,https://www.zillow.com/homedetails/1304-W-Xyler-St-Tulsa-OK-74127/78480464_zpid/,-96.006996,0.0,0.0,0.0,0.0,1977.0,7884.36,1.0,SingleFamily,"1304 W Xyler St,Tulsa,OK"
374,22125489,206000,4,2377,36.146763,1132 S Louisville Ave,74112,https://www.zillow.com/homedetails/1132-S-Louisville-Ave-Tulsa-OK-74112/22125489_zpid/,-95.93624,2.0,0.0,0.0,0.0,1936.0,8842.68,1.0,SingleFamily,"1132 S Louisville Ave,Tulsa,OK"
375,22219496,560000,4,3520,36.01523,10207 S Fulton Ave E,74137,https://www.zillow.com/homedetails/10207-S-Fulton-Ave-E-Tulsa-OK-74137/22219496_zpid/,-95.91664,3.0,1.0,0.0,0.0,1989.0,9104.04,2.0,SingleFamily,"10207 S Fulton Ave E,Tulsa,OK"
376,22224616,375000,4,2907,36.024403,8511 E 95th Pl,74133,https://www.zillow.com/homedetails/8511-E-95th-Pl-Tulsa-OK-74133/22224616_zpid/,-95.882,2.0,1.0,0.0,0.0,1999.0,11717.639999999998,2.0,SingleFamily,"8511 E 95th Pl,Tulsa,OK"
377,22226432,440000,4,3376,36.05432,4211 E 75th Pl,74136,https://www.zillow.com/homedetails/4211-E-75th-Pl-Tulsa-OK-74136/22226432_zpid/,-95.92898,3.0,0.0,0.0,0.0,1973.0,2178.0,1.0,SingleFamily,"4211 E 75th Pl,Tulsa,OK"
378,118331955,765000,4,4880,36.093334,17609 E 49th St,74134,https://www.zillow.com/homedetails/17609-E-49th-St-Tulsa-OK-74134/118331955_zpid/,-95.780945,0.0,0.0,0.0,0.0,2014.0,7666.56,1.0,SingleFamily,"17609 E 49th St,Tulsa,OK"
379,340028243,930000,4,4200,35.978874,5404 E 127th St S,74008,https://www.zillow.com/homedetails/5404-E-127th-St-S-Bixby-OK-74008/340028243_zpid/,-95.91592,4.0,1.0,0.0,0.0,2023.0,7187.4,2.0,SingleFamily,"5404 E 127th St S,Tulsa,OK"
380,22221231,425000,4,3141,35.999546,11301 S Erie Ave,74137,https://www.zillow.com/homedetails/11301-S-Erie-Ave-Tulsa-OK-74137/22221231_zpid/,-95.91657,3.0,1.0,0.0,0.0,1982.0,7492.32,1.0,SingleFamily,"11301 S Erie Ave,Tulsa,OK"
381,22221327,288000,4,1805,36.039295,3708 E 85th Pl S,74137,https://www.zillow.com/homedetails/3708-E-85th-Pl-S-Tulsa-OK-74137/22221327_zpid/,-95.93572,2.0,0.0,0.0,0.0,1973.0,12545.28,1.0,SingleFamily,"3708 E 85th Pl S,Tulsa,OK"
382,22229936,410000,4,2939,36.00002,11226 S Maplewood Ave,74137,https://www.zillow.com/homedetails/11226-S-Maplewood-Ave-Tulsa-OK-74137/22229936_zpid/,-95.90642,2.0,1.0,0.0,0.0,1992.0,10585.08,2.0,SingleFamily,"11226 S Maplewood Ave,Tulsa,OK"
383,94724657,325000,4,2101,36.09431,18312 E 48th St,74134,https://www.zillow.com/homedetails/18312-E-48th-St-Tulsa-OK-74134/94724657_zpid/,-95.772415,2.0,0.0,0.0,0.0,2010.0,12545.28,1.0,SingleFamily,"18312 E 48th St,Tulsa,OK"
384,22106078,395000,4,1860,36.105965,1028 E 39th St S,74105,https://www.zillow.com/homedetails/1028-E-39th-St-S-Tulsa-OK-74105/22106078_zpid/,-95.97903,2.0,0.0,0.0,0.0,1941.0,9191.16,2.0,SingleFamily,"1028 E 39th St S,Tulsa,OK"
385,22163780,200000,4,1208,36.17908,1601 N Oxford Ave,74115,https://www.zillow.com/homedetails/1601-N-Oxford-Ave-Tulsa-OK-74115/22163780_zpid/,-95.905556,2.0,0.0,0.0,0.0,1945.0,10454.4,1.0,SingleFamily,"1601 N Oxford Ave,Tulsa,OK"
386,22223490,364000,4,3064,36.04532,2821 E 82nd St,74137,https://www.zillow.com/homedetails/2821-E-82nd-St-Tulsa-OK-74137/22223490_zpid/,-95.947556,2.0,1.0,0.0,0.0,1993.0,20168.28,2.0,SingleFamily,"2821 E 82nd St,Tulsa,OK"
387,309691277,332000,4,1805,35.98477,6293 E 123rd St S,74008,https://www.zillow.com/homedetails/6293-E-123rd-St-S-Bixby-OK-74008/309691277_zpid/,-95.90635,2.0,0.0,0.0,0.0,2021.0,34543.08,1.0,SingleFamily,"6293 E 123rd St S,Tulsa,OK"
388,347506861,235000,4,2507,36.12636,2527 S 96th East Ave,74129,https://www.zillow.com/homedetails/2527-S-96th-East-Ave-Tulsa-OK-74129/347506861_zpid/,-95.86616,2.0,1.0,0.0,0.0,1975.0,6185.52,2.0,SingleFamily,"2527 S 96th East Ave,Tulsa,OK"
389,347907441,235000,4,2413,36.12842,2342 S 104th East Ave,74129,https://www.zillow.com/homedetails/2342-S-104th-East-Ave-Tulsa-OK-74129/347907441_zpid/,-95.86093,2.0,1.0,0.0,0.0,1973.0,17511.12,2.0,SingleFamily,"2342 S 104th East Ave,Tulsa,OK"
390,2056374403,327490,4,1810,36.106888,15002 E 39th Pl S,74134,https://www.zillow.com/homedetails/15002-E-39th-Pl-S-Tulsa-OK-74134/2056374403_zpid/,-95.80805,2.0,0.0,0.0,0.0,2023.0,27007.2,1.0,SingleFamily,"15002 E 39th Pl S,Tulsa,OK"
391,2056407688,327490,4,1802,36.107334,15003 E 39th Pl S,74134,https://www.zillow.com/homedetails/15003-E-39th-Pl-S-Tulsa-OK-74134/2056407688_zpid/,-95.8494,2.0,0.0,0.0,0.0,2023.0,8842.68,1.0,SingleFamily,"15003 E 39th Pl S,Tulsa,OK"
392,2057087154,327490,4,1802,36.107334,14920 E 39th Pl S,74134,https://www.zillow.com/homedetails/14920-E-39th-Pl-S-Tulsa-OK-74134/2057087154_zpid/,-95.8494,2.0,0.0,0.0,0.0,2023.0,7753.68,1.0,SingleFamily,"14920 E 39th Pl S,Tulsa,OK"
393,22136712,143000,4,2358,36.128616,2331 S 99th East Ave,74129,https://www.zillow.com/homedetails/2331-S-99th-East-Ave-Tulsa-OK-74129/22136712_zpid/,-95.86575,0.0,0.0,0.0,0.0,1975.0,15289.56,1.0,SingleFamily,"2331 S 99th East Ave,Tulsa,OK"
394,22221213,684200,4,3968,36.000313,5516 E 113th St S,74137,https://www.zillow.com/homedetails/5516-E-113th-St-S-Tulsa-OK-74137/22221213_zpid/,-95.91428,3.0,1.0,0.0,0.0,1982.0,58413.96,1.0,SingleFamily,"5516 E 113th St S,Tulsa,OK"
395,22222724,615000,4,4318,36.005,10930 S Richmond Ave,74137,https://www.zillow.com/homedetails/10930-S-Richmond-Ave-Tulsa-OK-74137/22222724_zpid/,-95.92911,3.0,2.0,0.0,0.0,1984.0,9016.92,2.0,SingleFamily,"10930 S Richmond Ave,Tulsa,OK"
396,22276601,247500,4,1322,36.152107,3539 E 6th St,74112,https://www.zillow.com/homedetails/3539-E-6th-St-Tulsa-OK-74112/22276601_zpid/,-95.93669,2.0,0.0,0.0,0.0,,3789.72,1.0,SingleFamily,"3539 E 6th St,Tulsa,OK"
397,54856001,550000,4,3767,36.016937,8723 E 101st Pl,74133,https://www.zillow.com/homedetails/8723-E-101st-Pl-Tulsa-OK-74133/54856001_zpid/,-95.87764,4.0,1.0,0.0,0.0,2004.0,10497.96,2.0,SingleFamily,"8723 E 101st Pl,Tulsa,OK"
398,58609098,985000,4,5330,36.006683,6114 E 108th St,74137,https://www.zillow.com/homedetails/6114-E-108th-St-Tulsa-OK-74137/58609098_zpid/,-95.9073,4.0,1.0,0.0,0.0,2001.0,10280.16,2.0,SingleFamily,"6114 E 108th St,Tulsa,OK"
399,22150240,1400000,4,4017,36.112747,1403 E 35th Pl,74105,https://www.zillow.com/homedetails/1403-E-35th-Pl-Tulsa-OK-74105/22150240_zpid/,-95.97337,4.0,0.0,0.0,0.0,2019.0,18687.24,2.0,SingleFamily,"1403 E 35th Pl,Tulsa,OK"
400,22152223,238000,4,2097,36.0804,5830 E 58th St S,74135,https://www.zillow.com/homedetails/5830-E-58th-St-S-Tulsa-OK-74135/22152223_zpid/,-95.909874,2.0,1.0,0.0,0.0,1961.0,7013.16,1.0,SingleFamily,"5830 E 58th St S,Tulsa,OK"
401,22202532,244500,4,2176,36.00501,8302 E 110th St S,74133,https://www.zillow.com/homedetails/8302-E-110th-St-S-Tulsa-OK-74133/22202532_zpid/,-95.88466,0.0,0.0,0.0,0.0,1993.0,8276.4,1.0,SingleFamily,"8302 E 110th St S,Tulsa,OK"
402,70508747,518500,4,3939,36.0125,10473 S 86th East Pl,74133,https://www.zillow.com/homedetails/10473-S-86th-East-Pl-Tulsa-OK-74133/70508747_zpid/,-95.879944,3.0,1.0,0.0,0.0,2005.0,18077.4,2.0,SingleFamily,"10473 S 86th East Pl,Tulsa,OK"
403,295333931,575000,4,3442,36.03575,1002 W 88th St S,74132,https://www.zillow.com/homedetails/1002-W-88th-St-S-Tulsa-OK-74132/295333931_zpid/,-96.003555,3.0,1.0,0.0,0.0,2018.0,8581.32,2.0,SingleFamily,"1002 W 88th St S,Tulsa,OK"
404,22147418,220000,4,1584,36.083042,3012 W 55th Pl,74107,https://www.zillow.com/homedetails/3012-W-55th-Pl-Tulsa-OK-74107/22147418_zpid/,-96.02618,1.0,1.0,0.0,0.0,1960.0,6664.68,2.0,SingleFamily,"3012 W 55th Pl,Tulsa,OK"
405,22239694,291100,4,2297,36.0406,8416 S 77th Pl E,74133,https://www.zillow.com/homedetails/8416-S-77th-Pl-E-Tulsa-OK-74133/22239694_zpid/,-95.891754,2.0,1.0,0.0,0.0,1978.0,17772.48,1.0,SingleFamily,"8416 S 77th Pl E,Tulsa,OK"
406,79762035,461120,4,2882,36.050224,7762 S Guthrie Ave,74132,https://www.zillow.com/homedetails/7762-S-Guthrie-Ave-Tulsa-OK-74132/79762035_zpid/,-95.99569,2.0,0.0,0.0,0.0,2006.0,13939.2,1.0,SingleFamily,"7762 S Guthrie Ave,Tulsa,OK"
407,82781560,390000,4,3408,36.012848,10465 S 86th East Pl,74133,https://www.zillow.com/homedetails/10465-S-86th-East-Pl-Tulsa-OK-74133/82781560_zpid/,-95.87986,3.0,1.0,0.0,0.0,2007.0,96964.56,2.0,SingleFamily,"10465 S 86th East Pl,Tulsa,OK"
408,124774223,607358,4,3740,36.100597,4362 S 173rd Ave E,74134,https://www.zillow.com/homedetails/4362-S-173rd-Ave-E-Tulsa-OK-74134/124774223_zpid/,-95.7849,3.0,1.0,0.0,0.0,2023.0,15115.32,2.0,SingleFamily,"4362 S 173rd Ave E,Tulsa,OK"
409,347343973,160000,4,1300,36.209805,3758 N Hartford Ave E,74106,https://www.zillow.com/homedetails/3758-N-Hartford-Ave-E-Tulsa-OK-74106/347343973_zpid/,-95.984764,2.0,0.0,0.0,0.0,1952.0,8581.32,1.0,SingleFamily,"3758 N Hartford Ave E,Tulsa,OK"
410,347820475,215000,4,1520,36.124966,2724 S 120th East Ave,74129,https://www.zillow.com/homedetails/2724-S-120th-East-Ave-Tulsa-OK-74129/347820475_zpid/,-95.84292,2.0,0.0,0.0,0.0,1970.0,7013.16,2.0,SingleFamily,"2724 S 120th East Ave,Tulsa,OK"
411,22170279,298000,4,2172,36.075153,6106 S Kingston Ave,74136,https://www.zillow.com/homedetails/6106-S-Kingston-Ave-Tulsa-OK-74136/22170279_zpid/,-95.90956,2.0,0.0,0.0,0.0,1966.0,8537.76,1.0,SingleFamily,"6106 S Kingston Ave,Tulsa,OK"
412,62627573,1810000,4,7602,36.004963,10920 S 69th Ave E,74133,https://www.zillow.com/homedetails/10920-S-69th-Ave-E-Tulsa-OK-74133/62627573_zpid/,-95.89892,4.0,3.0,0.0,0.0,2003.0,13982.76,2.0,SingleFamily,"10920 S 69th Ave E,Tulsa,OK"
414,22099212,515000,4,2149,36.11358,3408 S Yorktown Ave,74105,https://www.zillow.com/homedetails/3408-S-Yorktown-Ave-Tulsa-OK-74105/22099212_zpid/,-95.963326,2.0,1.0,0.0,0.0,1948.0,8842.68,1.0,SingleFamily,"3408 S Yorktown Ave,Tulsa,OK"
415,22135971,200000,4,2182,36.123795,9040 E 27th St,74129,https://www.zillow.com/homedetails/9040-E-27th-St-Tulsa-OK-74129/22135971_zpid/,-95.87385,2.0,0.0,0.0,0.0,1968.0,9104.04,2.0,SingleFamily,"9040 E 27th St,Tulsa,OK"
416,22136566,235000,4,2413,36.12844,2342 S 104th Ave E,74129,https://www.zillow.com/homedetails/2342-S-104th-Ave-E-Tulsa-OK-74129/22136566_zpid/,-95.860954,0.0,0.0,0.0,0.0,1973.0,11717.639999999998,1.0,SingleFamily,"2342 S 104th Ave E,Tulsa,OK"
417,22143297,370000,4,2648,36.109524,3728 S Braden Pl,74135,https://www.zillow.com/homedetails/3728-S-Braden-Pl-Tulsa-OK-74135/22143297_zpid/,-95.919716,2.0,1.0,0.0,0.0,1963.0,2178.0,3.0,SingleFamily,"3728 S Braden Pl,Tulsa,OK"
418,22188015,515000,4,4323,36.064903,6730 S Birmingham Ave,74136,https://www.zillow.com/homedetails/6730-S-Birmingham-Ave-Tulsa-OK-74136/22188015_zpid/,-95.95379,4.0,2.0,0.0,0.0,1966.0,7666.56,1.0,SingleFamily,"6730 S Birmingham Ave,Tulsa,OK"
419,22209587,155000,4,1446,36.227856,12208 E 81st Pl N,74055,https://www.zillow.com/homedetails/12208-E-81st-Pl-N-Owasso-OK-74055/22209587_zpid/,-95.96129,2.0,0.0,0.0,0.0,1985.0,7187.4,1.0,SingleFamily,"12208 E 81st Pl N,Tulsa,OK"
420,22222394,585000,4,4037,36.035828,3504 E 88th St S,74137,https://www.zillow.com/homedetails/3504-E-88th-St-S-Tulsa-OK-74137/22222394_zpid/,-95.93779,2.0,1.0,0.0,0.0,1984.0,7492.32,2.0,SingleFamily,"3504 E 88th St S,Tulsa,OK"
421,22224993,340000,4,2245,36.007168,10729 S Sandusky Ave,74137,https://www.zillow.com/homedetails/10729-S-Sandusky-Ave-Tulsa-OK-74137/22224993_zpid/,-95.927086,2.0,0.0,0.0,0.0,1975.0,12545.28,1.0,SingleFamily,"10729 S Sandusky Ave,Tulsa,OK"
422,22230277,337500,4,2714,36.030926,9125 S Florence Pl,74137,https://www.zillow.com/homedetails/9125-S-Florence-Pl-Tulsa-OK-74137/22230277_zpid/,-95.94318,2.0,1.0,0.0,0.0,1989.0,10585.08,2.0,SingleFamily,"9125 S Florence Pl,Tulsa,OK"
423,22233834,284000,4,2180,36.039497,8619 S 77th Ct E,74133,https://www.zillow.com/homedetails/8619-S-77th-Ct-E-Tulsa-OK-74133/22233834_zpid/,-95.89013,2.0,1.0,0.0,0.0,1982.0,12545.28,1.0,SingleFamily,"8619 S 77th Ct E,Tulsa,OK"
424,70505977,455000,4,3746,36.047157,9221 E 80th Pl S,74133,https://www.zillow.com/homedetails/9221-E-80th-Pl-S-Tulsa-OK-74133/70505977_zpid/,-95.874504,3.0,1.0,0.0,0.0,2005.0,9191.16,2.0,SingleFamily,"9221 E 80th Pl S,Tulsa,OK"
425,224034385,280000,4,1855,36.192966,3306 N 23rd West Ave,74127,https://www.zillow.com/homedetails/3306-N-23rd-West-Ave-Tulsa-OK-74127/224034385_zpid/,-96.017914,2.0,0.0,0.0,0.0,2022.0,10454.4,1.0,SingleFamily,"3306 N 23rd West Ave,Tulsa,OK"
426,2054839448,515850,4,2841,35.979855,5813 E 127th St S,74008,https://www.zillow.com/homedetails/5813-E-127th-St-S-Bixby-OK-74008/2054839448_zpid/,-95.91217,2.0,1.0,0.0,0.0,2023.0,20168.28,1.0,SingleFamily,"5813 E 127th St S,Tulsa,OK"
427,2054839858,525775,4,2841,35.97983,5905 E 127th Pl S,74008,https://www.zillow.com/homedetails/5905-E-127th-Pl-S-Bixby-OK-74008/2054839858_zpid/,-95.91147,2.0,1.0,0.0,0.0,2023.0,34543.08,1.0,SingleFamily,"5905 E 127th Pl S,Tulsa,OK"
428,2058452092,572500,4,3228,35.97837,5810 E 127th Pl S,74008,https://www.zillow.com/homedetails/5810-E-127th-Pl-S-Bixby-OK-74008/2058452092_zpid/,-95.91222,3.0,1.0,0.0,0.0,2023.0,6185.52,2.0,SingleFamily,"5810 E 127th Pl S,Tulsa,OK"
429,22136626,190000,4,2031,36.126503,2511 S 96th Ave E,74129,https://www.zillow.com/homedetails/2511-S-96th-Ave-E-Tulsa-OK-74129/22136626_zpid/,-95.86677,0.0,0.0,0.0,0.0,1975.0,17511.12,1.0,SingleFamily,"2511 S 96th Ave E,Tulsa,OK"
430,22276106,200000,4,2013,36.115063,3301 S 61st West Ave,74107,https://www.zillow.com/homedetails/3301-S-61st-West-Ave-Tulsa-OK-74107/22276106_zpid/,-96.06031,2.0,1.0,0.0,0.0,1978.0,27007.2,1.0,SingleFamily,"3301 S 61st West Ave,Tulsa,OK"
431,79761787,2250000,4,7077,36.005856,10808 S New Haven Ave,74137,https://www.zillow.com/homedetails/10808-S-New-Haven-Ave-Tulsa-OK-74137/79761787_zpid/,-95.934074,4.0,2.0,0.0,0.0,2006.0,8842.68,2.0,SingleFamily,"10808 S New Haven Ave,Tulsa,OK"
432,22186153,115000,4,1524,36.152744,11932 E 8th St,74128,https://www.zillow.com/homedetails/11932-E-8th-St-Tulsa-OK-74128/22186153_zpid/,-95.84239,2.0,0.0,0.0,0.0,1962.0,7753.68,1.0,SingleFamily,"11932 E 8th St,Tulsa,OK"
433,22222556,290000,4,2357,36.029034,6703 E 93rd St,74133,https://www.zillow.com/homedetails/6703-E-93rd-St-Tulsa-OK-74133/22222556_zpid/,-95.90186,2.0,0.0,0.0,0.0,1977.0,15289.56,1.0,SingleFamily,"6703 E 93rd St,Tulsa,OK"
434,22226110,778000,4,5459,36.006653,5408 E 108th St,74137,https://www.zillow.com/homedetails/5408-E-108th-St-Tulsa-OK-74137/22226110_zpid/,-95.91699,4.0,1.0,0.0,0.0,1991.0,58413.96,2.0,SingleFamily,"5408 E 108th St,Tulsa,OK"
435,22227004,475000,4,4949,36.02501,9432 S Florence Ave,74137,https://www.zillow.com/homedetails/9432-S-Florence-Ave-Tulsa-OK-74137/22227004_zpid/,-95.942024,3.0,1.0,0.0,0.0,1994.0,9016.92,2.0,SingleFamily,"9432 S Florence Ave,Tulsa,OK"
436,35969707,1290121,4,5371,36.104836,4028 S Xanthus Ave,74105,https://www.zillow.com/homedetails/4028-S-Xanthus-Ave-Tulsa-OK-74105/35969707_zpid/,-95.96381,4.0,3.0,0.0,0.0,2001.0,3789.72,2.0,SingleFamily,"4028 S Xanthus Ave,Tulsa,OK"
